{"type":"FeatureCollection", "features":[
{"type":"Feature","id":"7","geometry":{"type":"Point","coordinates":[-77.459023,39.016363,0]},"properties":{"name":"Equinix, Inc.","description":"","peeringDB":"https://peeringdb.com/fac/1","website":"http://www.equinix.com/","Networks":"481","Exchanges":"7","Address":"21715 Filigree Ct","city":"Ashburn","country":"US","state":"VA","zipcode":"20147-6205","latitude":"39.016363","longitude":"-77.459023"}},
{"type":"Feature","id":"22","geometry":{"type":"Point","coordinates":[-122.397923,37.723407,0]},"properties":{"name":"Digital Realty","description":"","peeringDB":"https://peeringdb.com/fac/2","website":"https://www.digitalrealty.com","Networks":"44","Exchanges":"2","Address":"200 Paul Ave","city":"San Francisco","country":"US","state":"CA","zipcode":"94110","latitude":"37.723407","longitude":"-122.397923"}},
{"type":"Feature","id":"37","geometry":{"type":"Point","coordinates":[-96.81955,32.800955,0]},"properties":{"name":"Equinix, Inc.","description":"","peeringDB":"https://peeringdb.com/fac/4","website":"https://www.equinix.com/locations/americas-colocation/united-states-colocation/dallas-data-centers/da1/","Networks":"157","Exchanges":"5","Address":"1950 N Stemmons Fwy","city":"Dallas","country":"US","state":"TX","zipcode":"75207-3137","latitude":"32.800955","longitude":"-96.81955"}},
{"type":"Feature","id":"52","geometry":{"type":"Point","coordinates":[-122.160775,37.445896,0]},"properties":{"name":"Equinix, Inc.","description":"","peeringDB":"https://peeringdb.com/fac/5","website":"https://www.equinix.com/locations/americas-colocation/united-states-colocation/silicon-valley-data-centers/sv8/","Networks":"69","Exchanges":"4","Address":"529 Bryant St","city":"Palo Alto","country":"US","state":"CA","zipcode":"94301-1704","latitude":"37.445896","longitude":"-122.160775"}},
{"type":"Feature","id":"67","geometry":{"type":"Point","coordinates":[-121.782967,37.241767,0]},"properties":{"name":"Equinix, Inc.","description":"","peeringDB":"https://peeringdb.com/fac/6","website":"https://www.equinix.com/locations/americas-colocation/united-states-colocation/silicon-valley-data-centers/","Networks":"272","Exchanges":"8","Address":"11 Great Oaks Blvd","city":"San Jose","country":"US","state":"CA","zipcode":"95119-1242","latitude":"37.241767","longitude":"-121.782967"}},
{"type":"Feature","id":"82","geometry":{"type":"Point","coordinates":[-87.618342,41.85365,0]},"properties":{"name":"Equinix, Inc.","description":"","peeringDB":"https://peeringdb.com/fac/7","website":"http://www.equinix.com/","Networks":"315","Exchanges":"9","Address":"350 E Cermak Rd","city":"Chicago","country":"US","state":"IL","zipcode":"60616-1568","latitude":"41.85365","longitude":"-87.618342"}},
{"type":"Feature","id":"97","geometry":{"type":"Point","coordinates":[-118.2573,34.047501,0]},"properties":{"name":"Equinix, Inc.","description":"","peeringDB":"https://peeringdb.com/fac/8","website":"https://www.equinix.com/locations/americas-colocation/united-states-colocation/los-angeles-data-centers/la1/","Networks":"144","Exchanges":"6","Address":"600 W 7th St","city":"Los Angeles","country":"US","state":"CA","zipcode":"90017-3859","latitude":"34.047501","longitude":"-118.2573"}},
{"type":"Feature","id":"112","geometry":{"type":"Point","coordinates":[-74.173402,40.736844,0]},"properties":{"name":"Equinix, Inc.","description":"","peeringDB":"https://peeringdb.com/fac/9","website":"https://www.equinix.com/locations/americas-colocation/united-states-colocation/new-york-data-centers/ny1/","Networks":"32","Exchanges":"2","Address":"165 Halsey St","city":"Newark","country":"US","state":"NJ","zipcode":"07102-2834","latitude":"40.736844","longitude":"-74.173402"}},
{"type":"Feature","id":"127","geometry":{"type":"Point","coordinates":[-74.008299,40.717723,0]},"properties":{"name":"Digital Realty","description":"fka: Telx NYC1","peeringDB":"https://peeringdb.com/fac/10","website":"https://www.digitalrealty.com","Networks":"154","Exchanges":"8","Address":"60 Hudson St","city":"New York","country":"US","state":"NY","zipcode":"10013-3315","latitude":"40.717723","longitude":"-74.008299"}},
{"type":"Feature","id":"142","geometry":{"type":"Point","coordinates":[-84.39153,33.755456,0]},"properties":{"name":"Equinix, Inc.","description":"","peeringDB":"https://peeringdb.com/fac/11","website":"http://www.equinix.com/","Networks":"25","Exchanges":"1","Address":"56 Marietta St NW","city":"Atlanta","country":"US","state":"GA","zipcode":"30303-2885","latitude":"33.755456","longitude":"-84.39153"}},
{"type":"Feature","id":"157","geometry":{"type":"Point","coordinates":[-79.384128,43.644672,0]},"properties":{"name":"Equinix, Inc.","description":"Suite 706","peeringDB":"https://peeringdb.com/fac/12","website":"https://www.equinix.com/locations/americas-colocation/canada-colocation/toronto-data-center/tr1/","Networks":"42","Exchanges":"5","Address":"151 Front St","city":"Toronto","country":"CA","state":"ON","zipcode":"M5J 2N1","latitude":"43.644672","longitude":"-79.384128"}},
{"type":"Feature","id":"172","geometry":{"type":"Point","coordinates":[-80.193157,25.782648,0]},"properties":{"name":"Equinix, Inc.","description":"Formerly: NAP of the Americas","peeringDB":"https://peeringdb.com/fac/15","website":"https://www.equinix.com/locations/americas-colocation/united-states-colocation/miami-data-centers/mi1/","Networks":"301","Exchanges":"8","Address":"50 NE 9th St","city":"Miami","country":"US","state":"FL","zipcode":"33132-1709","latitude":"25.782648","longitude":"-80.193157"}},
{"type":"Feature","id":"187","geometry":{"type":"Point","coordinates":[-74.003387,40.741469,0]},"properties":{"name":"Digital Realty","description":"","peeringDB":"https://peeringdb.com/fac/16","website":"https://www.digitalrealty.com","Networks":"128","Exchanges":"6","Address":"111 8th Ave","city":"New York","country":"US","state":"NY","zipcode":"10011","latitude":"40.741469","longitude":"-74.003387"}},
{"type":"Feature","id":"202","geometry":{"type":"Point","coordinates":[4.950837,52.356394,0]},"properties":{"name":"Nikhef","description":"","peeringDB":"https://peeringdb.com/fac/18","website":"http://www.nikhefhousing.nl","Networks":"421","Exchanges":"25","Address":"Science Park 105","city":"Amsterdam","country":"NL","state":"NH","zipcode":"1098 XG","latitude":"52.356394","longitude":"4.950837"}},
{"type":"Feature","id":"217","geometry":{"type":"Point","coordinates":[-118.255564,34.047942,0]},"properties":{"name":"CoreSite","description":"","peeringDB":"https://peeringdb.com/fac/19","website":"http://www.coresite.com","Networks":"333","Exchanges":"6","Address":"624 S. Grand Ave.","city":"Los Angeles","country":"US","state":"CA","zipcode":"90017","latitude":"34.047942","longitude":"-118.255564"}},
{"type":"Feature","id":"232","geometry":{"type":"Point","coordinates":[-121.891649,37.334147,0]},"properties":{"name":"CoreSite","description":"","peeringDB":"https://peeringdb.com/fac/20","website":"http://www.coresite.com","Networks":"57","Exchanges":"4","Address":"55 S. Market Street","city":"San Jose","country":"US","state":"CA","zipcode":"95113","latitude":"37.334147","longitude":"-121.891649"}},
{"type":"Feature","id":"247","geometry":{"type":"Point","coordinates":[-122.392048,37.783322,0]},"properties":{"name":"60 Fed LLC","description":"","peeringDB":"https://peeringdb.com/fac/21","website":"","Networks":"0","Exchanges":"0","Address":"60 Federal Street","city":"San Francisco","country":"US","state":"CA","zipcode":"94103","latitude":"37.783322","longitude":"-122.392048"}},
{"type":"Feature","id":"262","geometry":{"type":"Point","coordinates":[-118.255186,34.048428,0]},"properties":{"name":"JMA Wired","description":"","peeringDB":"https://peeringdb.com/fac/22","website":"","Networks":"1","Exchanges":"1","Address":"530 West 6th Street","city":"Los Angeles","country":"US","state":"CA","zipcode":"90014","latitude":"34.048428","longitude":"-118.255186"}},
{"type":"Feature","id":"277","geometry":{"type":"Point","coordinates":[-122.390509,37.788669,0]},"properties":{"name":"Digital Realty","description":"","peeringDB":"https://peeringdb.com/fac/23","website":"https://www.digitalrealty.com","Networks":"32","Exchanges":"3","Address":"365 Main Street","city":"San Francisco","country":"US","state":"CA","zipcode":"94105","latitude":"37.788669","longitude":"-122.390509"}},
{"type":"Feature","id":"292","geometry":{"type":"Point","coordinates":[-122.408954,37.780351,0]},"properties":{"name":"UnitedLayer LLC","description":"","peeringDB":"https://peeringdb.com/fac/24","website":"https://unitedlayer.com","Networks":"0","Exchanges":"0","Address":"1019 Mission Street","city":"San Francisco","country":"US","state":"CA","zipcode":"94107","latitude":"37.780351","longitude":"-122.408954"}},
{"type":"Feature","id":"307","geometry":{"type":"Point","coordinates":[-121.904828,37.333765,0]},"properties":{"name":"SVTIX San Jose","description":"","peeringDB":"https://peeringdb.com/fac/33","website":"","Networks":"4","Exchanges":"0","Address":"250 Stockton St","city":"San Jose","country":"US","state":"CA","zipcode":"95126","latitude":"37.333765","longitude":"-121.904828"}},
{"type":"Feature","id":"322","geometry":{"type":"Point","coordinates":[-0.460224,51.482248,0]},"properties":{"name":"Digital Realty","description":"fka: Equinix LD2\n\nThere is a pre-installed Metro Connect solution connecting to both Interxion's Docklands Campus (Sovereign House, Sovereign House North and Cloud House) and Interxion's City campus (LON1, LON2, LON3 and Oliver's Yard) providing redundant 10G and 100G connections between the campuses.","peeringDB":"https://peeringdb.com/fac/35","website":"https://www.digitalrealty.com/data-centers/london/unit-1-airport-gate-bath-road-middlesex","Networks":"15","Exchanges":"0","Address":"Unit 1","city":"West Drayton","country":"GB","state":"Middlesex","zipcode":"UB7 0NA","latitude":"51.482248","longitude":"-0.460224"}},
{"type":"Feature","id":"337","geometry":{"type":"Point","coordinates":[-74.072237,40.778534,0]},"properties":{"name":"Equinix, Inc.","description":"NY2: 275 Hartz Way; \nNY4: 755 Secaucus Road; \nNY5: 800 Secaucus Road; \nNY6: 105 Enterprise Ave","peeringDB":"https://peeringdb.com/fac/36","website":"https://www.equinix.com/locations/americas-colocation/united-states-colocation/new-york-data-centers/","Networks":"121","Exchanges":"8","Address":"800 Secaucus Road","city":"Secaucus","country":"US","state":"NJ","zipcode":"07094","latitude":"40.778534","longitude":"-74.072237"}},
{"type":"Feature","id":"352","geometry":{"type":"Point","coordinates":[-74.003387,40.741469,0]},"properties":{"name":"Equinix, Inc.","description":"","peeringDB":"https://peeringdb.com/fac/38","website":"https://www.equinix.com/locations/americas-colocation/united-states-colocation/new-york-data-centers/ny9/","Networks":"83","Exchanges":"3","Address":"111 8th Ave","city":"New York","country":"US","state":"NY","zipcode":"10011","latitude":"40.741469","longitude":"-74.003387"}},
{"type":"Feature","id":"367","geometry":{"type":"Point","coordinates":[-0.010775,51.499819,0]},"properties":{"name":"Digital Realty","description":"fka: Telecity LON3\nfka: Interhouse Redbus\n\nInterxion's data centres in the Docklands Campus (Sovereign House, Sovereign House North and Cloud House) are all interconnected with redundant dark fibre. It is possible to connect between any of the data centres with a standard cross connect.\n\nThere is also a pre-installed Metro Connect solution connecting to Interxion's City campus (LON1, LON2, LON3 and Oliver's Yard) providing redundant dark fibre and 10G and 100G connections between the campuses.","peeringDB":"https://peeringdb.com/fac/40","website":"https://www.interxion.com/","Networks":"95","Exchanges":"6","Address":"Sovereign House","city":"London","country":"GB","state":"","zipcode":"E14 9SD","latitude":"51.499819","longitude":"-0.010775"}},
{"type":"Feature","id":"382","geometry":{"type":"Point","coordinates":[-0.018933,51.496902,0]},"properties":{"name":"Digital Realty","description":"fka: Telecity LON1\nfka: Interhouse Redbus\nfka: Bonnington House\n\nInterxion's data centres in the Docklands Campus (Sovereign House, Sovereign House North and Cloud House) are all interconnected with redundant dark fibre. It is possible to connect between any of the data centres with a standard cross connect.\n\nThere is also a pre-installed Metro Connect solution connecting to Interxion's City campus (LON1, LON2, LON3 and Oliver's Yard) providing redundant dark fibre and 10G and 100G connections between the campuses.","peeringDB":"https://peeringdb.com/fac/43","website":"https://www.interxion.com/","Networks":"34","Exchanges":"4","Address":"Cloud House","city":"London","country":"GB","state":"","zipcode":"E14 9TR","latitude":"51.496902","longitude":"-0.018933"}},
{"type":"Feature","id":"397","geometry":{"type":"Point","coordinates":[-0.014327,51.498842,0]},"properties":{"name":"Equinix, Inc.","description":"Formerly Telecity Harbour Exchange (HEX 6/7 & 8/9).","peeringDB":"https://peeringdb.com/fac/45","website":"http://www.equinix.com/locations/","Networks":"311","Exchanges":"9","Address":"6-9 Harbour Exchange Square","city":"London","country":"GB","state":"","zipcode":"E14 9GE","latitude":"51.498842","longitude":"-0.014327"}},
{"type":"Feature","id":"412","geometry":{"type":"Point","coordinates":[-0.073777,51.520397,0]},"properties":{"name":"Digital Realty","description":"Interxion's City campus (LON1, LON2, LON3 and Oliver's Yard) is all interconnected with redundant dark fibre. It is possible to connect between any of the data centres with a standard cross connect.\n\nThere is also a pre-installed Metro Connect solution between Interxion's Docklands Campus (Sovereign House, Sovereign House North and Cloud House) providing redundant dark fibre and 10G and 100G connections between the campuses.","peeringDB":"https://peeringdb.com/fac/46","website":"https://www.digitalrealty.com/data-centers/london/11-hanbury-st-london-united-kingdom","Networks":"123","Exchanges":"6","Address":"11 Hanbury Street","city":"London","country":"GB","state":"","zipcode":"E1 6QR","latitude":"51.520397","longitude":"-0.073777"}},
{"type":"Feature","id":"427","geometry":{"type":"Point","coordinates":[-0.003494,51.510985,0]},"properties":{"name":"Global Switch","description":"","peeringDB":"https://peeringdb.com/fac/47","website":"http://www.globalswitch.com","Networks":"33","Exchanges":"1","Address":"3 Nutmeg Lane","city":"London","country":"GB","state":"","zipcode":"E14 2AX","latitude":"51.510985","longitude":"-0.003494"}},
{"type":"Feature","id":"442","geometry":{"type":"Point","coordinates":[-0.010634,51.511364,0]},"properties":{"name":"Global Switch","description":"","peeringDB":"https://peeringdb.com/fac/48","website":"http://www.globalswitch.com","Networks":"35","Exchanges":"1","Address":"240 East India Dock Road","city":"London","country":"GB","state":"","zipcode":"E14 944","latitude":"51.511364","longitude":"-0.010634"}},
{"type":"Feature","id":"457","geometry":{"type":"Point","coordinates":[-0.087837,51.519453,0]},"properties":{"name":"Equinix, Inc.","description":"**FACILITY HAS BEEN SHUT DOWN**","peeringDB":"https://peeringdb.com/fac/50","website":"http://www.equinix.com","Networks":"5","Exchanges":"0","Address":"101 Finsbury Pavement","city":"London","country":"GB","state":"","zipcode":"EC2A 1 RS","latitude":"51.519453","longitude":"-0.087837"}},
{"type":"Feature","id":"472","geometry":{"type":"Point","coordinates":[2.208747,48.782499,0]},"properties":{"name":"SFR SA","description":"Previously LDCOM","peeringDB":"https://peeringdb.com/fac/52","website":"https://www.sfrbusiness.fr/solutions-entreprises/infrastructure-it/netcenter/","Networks":"0","Exchanges":"0","Address":"6 Rue Nieuport","city":"Paris","country":"FR","state":"","zipcode":"78140","latitude":"48.782499","longitude":"2.208747"}},
{"type":"Feature","id":"487","geometry":{"type":"Point","coordinates":[2.38532,48.856654,0]},"properties":{"name":"Telehouse - Global Data Centers","description":"Adress is for deliveries.  \nAll Telehouse data centres in Paris are on the same Metropolitan campus. It is possible to order standard cross connects between any two data centres within Paris Metro (Telehouse Metro Connect).\nLéon Frot is owned and operated by KDDI, partially sold by Telehouse.","peeringDB":"https://peeringdb.com/fac/53","website":"http://www.telehouse.fr","Networks":"325","Exchanges":"9","Address":"137 Boulevard Voltaire","city":"Paris","country":"FR","state":"","zipcode":"75011","latitude":"48.856654","longitude":"2.38532"}},
{"type":"Feature","id":"502","geometry":{"type":"Point","coordinates":[2.344236,48.869869,0]},"properties":{"name":"Telehouse - Global Data Centers","description":"","peeringDB":"https://peeringdb.com/fac/54","website":"http://www.telehouse.fr","Networks":"22","Exchanges":"2","Address":"38, rue des Jeûneurs","city":"Paris","country":"FR","state":"","zipcode":"75002","latitude":"48.869869","longitude":"2.344236"}},
{"type":"Feature","id":"517","geometry":{"type":"Point","coordinates":[2.257694,48.903746,0]},"properties":{"name":"SFR SA","description":"","peeringDB":"https://peeringdb.com/fac/55","website":"https://www.sfrbusiness.fr/solutions-entreprises/infrastructure-it/netcenter/","Networks":"40","Exchanges":"1","Address":"124 Boulevard de Verdun","city":"Paris","country":"FR","state":"","zipcode":"92400","latitude":"48.903746","longitude":"2.257694"}},
{"type":"Feature","id":"532","geometry":{"type":"Point","coordinates":[2.369496,48.902082,0]},"properties":{"name":"Digital Realty","description":"","peeringDB":"https://peeringdb.com/fac/56","website":"https://www.interxion.com/","Networks":"33","Exchanges":"1","Address":"45 Avenue Victor Hugo","city":"Paris","country":"FR","state":"","zipcode":"93534","latitude":"48.902082","longitude":"2.369496"}},
{"type":"Feature","id":"547","geometry":{"type":"Point","coordinates":[4.862905,45.722882,0]},"properties":{"name":"SFR SA","description":"Perviously LDCOM","peeringDB":"https://peeringdb.com/fac/57","website":"https://www.sfrbusiness.fr/solutions-entreprises/infrastructure-it/netcenter/","Networks":"78","Exchanges":"3","Address":"8 Rue Georges Marrane","city":"Vénissieux","country":"FR","state":"Auvergne-Rhône-Alpes","zipcode":"69200","latitude":"45.722882","longitude":"4.862905"}},
{"type":"Feature","id":"562","geometry":{"type":"Point","coordinates":[8.73463,50.11967,0]},"properties":{"name":"Digital Realty","description":"Address is for deliveries.\n\nAll Interxion data centres in Frankfurt are on the same campus, and it is possible to order standard cross connects between any two data centres on the campus.","peeringDB":"https://peeringdb.com/fac/58","website":"https://www.digitalrealty.com/data-centers/frankfurt/gip-park-area-frankfurt-am-main-germany-1","Networks":"578","Exchanges":"23","Address":"Hanauer Landstrasse 298","city":"Frankfurt","country":"DE","state":"Hessen","zipcode":"60314","latitude":"50.11967","longitude":"8.73463"}},
{"type":"Feature","id":"577","geometry":{"type":"Point","coordinates":[8.631763,50.099697,0]},"properties":{"name":"ITENOS GmbH","description":"The facility is also at Kleyerstrasse 90, 60326 Frankfurt, Germany","peeringDB":"https://peeringdb.com/fac/59","website":"https://itenos.de/en/datacenter/data-center-germany/data-center-frankfurt-1/","Networks":"61","Exchanges":"4","Address":"Kleyerstrasse 90 / Rebstoeckerstrasse 25-31","city":"Frankfurt","country":"DE","state":"Hesse","zipcode":"60326","latitude":"50.099697","longitude":"8.631763"}},
{"type":"Feature","id":"592","geometry":{"type":"Point","coordinates":[8.632004,50.09885,0]},"properties":{"name":"Equinix, Inc.","description":"Additional connectivity within the metro using [Fibre Connect] (https://www.equinix.com/resources/data-sheets/fiber-connect) is available to the following IBX's:\n\n[Frankfurt FR4] (https://www.peeringdb.com/fac/683)\n\n[Frankfurt FR6] (https://www.peeringdb.com/fac/4704)\n\n[Frankfurt FR7] (https://www.peeringdb.com/fac/74)\n\n[Frankfurt FR8] (https://www.peeringdb.com/fac/11840)","peeringDB":"https://peeringdb.com/fac/60","website":"https://www.equinix.com/locations/germany-colocation/frankfurt-data-centers/fr5/","Networks":"463","Exchanges":"31","Address":"Kleyerstrasse 90","city":"Frankfurt","country":"DE","state":"","zipcode":"60326","latitude":"50.09885","longitude":"8.632004"}},
{"type":"Feature","id":"607","geometry":{"type":"Point","coordinates":[4.951609,52.356353,0]},"properties":{"name":"Digital Realty","description":"Interxion's data centres in the Science Park Campus (AMS9 and AMS17) are all interconnected with redundant dark fiber. It is possible to connect between any of the data centres with a standard campus cross connect. This includes cross connects to the NIKHEF building.\n\nThere is also a pre-installed Metro Connect solution between the Interxion Science Park Campus, the Interxion Schiphol Campus, and Interxion Amstel Business Park. This includes 10G and 100G Managed Wave and Dark Fiber solutions.\n\nThere is also a pre-installed DLR Metro Ethernet solution between Interxion Science Park Campus and Interxion De President. This includes 1G and 10G Managed Ethernet.","peeringDB":"https://peeringdb.com/fac/61","website":"https://www.digitalrealty.com","Networks":"135","Exchanges":"7","Address":"Science Park 120","city":"Amsterdam","country":"NL","state":"","zipcode":"1098 XG","latitude":"52.356353","longitude":"4.951609"}},
{"type":"Feature","id":"622","geometry":{"type":"Point","coordinates":[4.938009,52.303078,0]},"properties":{"name":"Equinix, Inc.","description":"This facility is part of an Equinix Campus with diverse, sub-10km [Campus Cross Connects] (https://www.equinix.com/resources/data-sheets/cross-connects/) available to the following IBX's:\n\n[Amsterdam AM1/AM2] (https://www.peeringdb.com/fac/375)\n\n[Amsterdam AM5] (https://www.peeringdb.com/fac/1236)\n\n[Amsterdam AM11] (https://www.peeringdb.com/fac/1222)\n\nAdditional connectivity within the metro using [Fibre Connect] (https://www.equinix.com/resources/data-sheets/fiber-connect) is available to the following IBX's:\n\n[Amsterdam AM3] (https://www.peeringdb.com/fac/1320)\n\n[Amsterdam AM4] (https://www.peeringdb.com/fac/4627)\n\n[Amsterdam AM6] (https://www.peeringdb.com/fac/2906)","peeringDB":"https://peeringdb.com/fac/62","website":"https://www.equinix.com/locations/netherlands-colocation/amsterdam-data-centers/am7/","Networks":"213","Exchanges":"12","Address":"Kuiperbergweg 13","city":"Amsterdam","country":"NL","state":"","zipcode":"1101 AE","latitude":"52.303078","longitude":"4.938009"}},
{"type":"Feature","id":"637","geometry":{"type":"Point","coordinates":[4.828711,52.343984,0]},"properties":{"name":"Global Switch","description":"","peeringDB":"https://peeringdb.com/fac/63","website":"https://www.globalswitch.com/locations/amsterdam","Networks":"94","Exchanges":"6","Address":"Johan Huizingalaan 759","city":"Amsterdam","country":"NL","state":"","zipcode":"1066 VH","latitude":"52.343984","longitude":"4.828711"}},
{"type":"Feature","id":"652","geometry":{"type":"Point","coordinates":[4.770855,52.28415,0]},"properties":{"name":"Digital Realty","description":"Digital Realty's data centers in the Schiphol Campus (AMS3, 5, 6, 7, 8 and 10) are all interconnected with redundant dark fiber. It is possible to connect between any of the data centers with a standard campus cross connect.\n\nThere is also a pre-installed Metro Connect solution between the Digital Realty Schiphol Campus, the Digital Realty Science Park Campus, and Digital Realty Amstel Business Park. This includes 10G and 100G Managed Wave and Dark Fiber solutions.","peeringDB":"https://peeringdb.com/fac/64","website":"https://www.digitalrealty.com","Networks":"105","Exchanges":"3","Address":"Cessnalaan 1","city":"Amsterdam","country":"NL","state":"","zipcode":"1119 NJ","latitude":"52.28415","longitude":"4.770855"}},
{"type":"Feature","id":"667","geometry":{"type":"Point","coordinates":[16.357784,48.214151,0]},"properties":{"name":"University of Vienna","description":"","peeringDB":"https://peeringdb.com/fac/66","website":"http://zid.univie.ac.at","Networks":"26","Exchanges":"1","Address":"Universitaetsstrasse 7","city":"Vienna","country":"AT","state":"","zipcode":"1010","latitude":"48.214151","longitude":"16.357784"}},
{"type":"Feature","id":"682","geometry":{"type":"Point","coordinates":[16.410613,48.269027,0]},"properties":{"name":"Digital Realty","description":"Interxion data centres in Vienna are on the same campus, and it is possible to order standard cross connects between the two data centres on the campus.","peeringDB":"https://peeringdb.com/fac/67","website":"https://www.interxion.com/","Networks":"177","Exchanges":"9","Address":"Louis-Haefliger-Gasse 10","city":"Vienna","country":"AT","state":"","zipcode":"1210","latitude":"48.269027","longitude":"16.410613"}},
{"type":"Feature","id":"697","geometry":{"type":"Point","coordinates":[4.476941,50.870502,0]},"properties":{"name":"Digital Realty","description":"","peeringDB":"https://peeringdb.com/fac/68","website":"https://www.digitalrealty.com/data-centers/brussels/wezembeekstraat-2-bus-1-zaventem-belgium","Networks":"100","Exchanges":"5","Address":"Wezenbeekstraat 2","city":"Brussels","country":"BE","state":"","zipcode":"1930","latitude":"50.870502","longitude":"4.476941"}},
{"type":"Feature","id":"712","geometry":{"type":"Point","coordinates":[-96.81955,32.800955,0]},"properties":{"name":"Equinix, Inc.","description":"","peeringDB":"https://peeringdb.com/fac/69","website":"https://www.equinix.com/locations/americas-colocation/united-states-colocation/dallas-data-centers/da3/","Networks":"90","Exchanges":"6","Address":"1950 N Stemmons Fwy","city":"Dallas","country":"US","state":"TX","zipcode":"75207","latitude":"32.800955","longitude":"-96.81955"}},
{"type":"Feature","id":"727","geometry":{"type":"Point","coordinates":[-122.338883,47.614347,0]},"properties":{"name":"Digital Realty","description":"","peeringDB":"https://peeringdb.com/fac/71","website":"https://www.digitalrealty.com","Networks":"225","Exchanges":"5","Address":"2001 Sixth Avenue","city":"Seattle","country":"US","state":"WA","zipcode":"98121","latitude":"47.614347","longitude":"-122.338883"}},
{"type":"Feature","id":"742","geometry":{"type":"Point","coordinates":[2.259202,48.904891,0]},"properties":{"name":"Equinix, Inc.","description":"Formerly Telecity Par2.","peeringDB":"https://peeringdb.com/fac/72","website":"https://www.equinix.com/locations/france-colocation/paris-data-centers/pa7/","Networks":"48","Exchanges":"2","Address":"130-136 Boulevard de Verdun","city":"Paris","country":"FR","state":"","zipcode":"92413","latitude":"48.904891","longitude":"2.259202"}},
{"type":"Feature","id":"757","geometry":{"type":"Point","coordinates":[2.369221,48.90407,0]},"properties":{"name":"Equinix, Inc.","description":"This facility is part of an Equinix Campus with diverse, sub-10km [Campus Cross Connects] (https://www.equinix.com/resources/data-sheets/cross-connects/) available to the following IBX's:\n\n[Paris PA6] (https://www.peeringdb.com/fac/842)\n\nAdditional connectivity within the metro using [Fibre Connect] (https://www.equinix.com/resources/data-sheets/fiber-connect) is available to the following IBX's:\n\n[Paris PA2] (https://www.peeringdb.com/fac/306)\n\n[Paris PA3] (https://www.peeringdb.com/fac/717)\n\n[Paris PA4] (https://www.peeringdb.com/fac/1244)","peeringDB":"https://peeringdb.com/fac/73","website":"https://www.equinix.com/locations/france-colocation/paris-data-centers/pa5/","Networks":"46","Exchanges":"1","Address":"45 Avenue Victor Hugo","city":"Paris","country":"FR","state":"","zipcode":"93534","latitude":"48.90407","longitude":"2.369221"}},
{"type":"Feature","id":"772","geometry":{"type":"Point","coordinates":[8.644169,50.096869,0]},"properties":{"name":"Equinix, Inc.","description":"Additional connectivity within the metro using [Fibre Connect] (https://www.equinix.com/resources/data-sheets/fiber-connect) is available to the following IBX's:\n\n[Frankfurt FR4] (https://www.peeringdb.com/fac/683)\n\n[Frankfurt FR5] (https://www.peeringdb.com/fac/60)\n\n[Frankfurt FR6] (https://www.peeringdb.com/fac/4704)\n\n[Frankfurt FR8] (https://www.peeringdb.com/fac/11840)","peeringDB":"https://peeringdb.com/fac/74","website":"https://www.equinix.com/locations/germany-colocation/frankfurt-data-centers/fr7/","Networks":"121","Exchanges":"12","Address":"Gutleutstrasse 310","city":"Frankfurt","country":"DE","state":"","zipcode":"60327","latitude":"50.096869","longitude":"8.644169"}},
{"type":"Feature","id":"787","geometry":{"type":"Point","coordinates":[2.370417,48.906617,0]},"properties":{"name":"Digital Realty","description":"","peeringDB":"https://peeringdb.com/fac/75","website":"https://www.digitalrealty.com/data-centers/paris/20-bis-rue-de-gardinoux-aubervilliers-paris-france","Networks":"48","Exchanges":"1","Address":"20 Rue des Gardinoux","city":"Paris","country":"FR","state":"","zipcode":"93300","latitude":"48.906617","longitude":"2.370417"}},
{"type":"Feature","id":"802","geometry":{"type":"Point","coordinates":[-2.236869,53.463112,0]},"properties":{"name":"Equinix, Inc.","description":"This facility is part of an Equinix Campus with diverse, sub-10km [Campus Cross Connects] (https://www.equinix.com/resources/data-sheets/cross-connects/) available to the following IBX's:\n\n[Manchester MA4] (https://peeringdb.com/fac/2907)","peeringDB":"https://peeringdb.com/fac/76","website":"https://www.equinix.com/locations/united-kingdom-colocation/manchester-data-centers/ma1/","Networks":"118","Exchanges":"2","Address":"Manchester Science Park","city":"Manchester","country":"GB","state":"","zipcode":"M15 6SE","latitude":"53.463112","longitude":"-2.236869"}},
{"type":"Feature","id":"817","geometry":{"type":"Point","coordinates":[-2.247614,53.464349,0]},"properties":{"name":"Lunar Digital Solutions Limited","description":"Reynolds House is now operated by Lunar Digital:\n\nhttps://lunardigital.co.uk/acquisition-ma2-reynolds-house-equinix/","peeringDB":"https://peeringdb.com/fac/78","website":"https://www.lunardigital.co.uk/","Networks":"36","Exchanges":"1","Address":"Reynolds House","city":"Manchester","country":"GB","state":"","zipcode":"M15 5RN","latitude":"53.464349","longitude":"-2.247614"}},
{"type":"Feature","id":"832","geometry":{"type":"Point","coordinates":[-0.011758,51.500621,0]},"properties":{"name":"Digital Realty","description":"fka: Telecity LON4\nfka: Memaco House\n\nInterxion's data centres in the Docklands Campus (Sovereign House, Sovereign House North and Cloud House) are all interconnected with redundant dark fibre. It is possible to connect between any of the data centres with a standard cross connect.\n\nThere is also a pre-installed Metro Connect solution connecting to Interxion's City campus (LON1, LON2, LON3 and Oliver's Yard) providing redundant dark fibre and 10G and 100G connections between the campuses.","peeringDB":"https://peeringdb.com/fac/79","website":"https://www.digitalrealty.com/data-centers/london/sovereign-north-215-marsh-wall","Networks":"30","Exchanges":"3","Address":"Memaco House, Meridian Gate","city":"London","country":"GB","state":"","zipcode":"E14 9FJ","latitude":"51.500621","longitude":"-0.011758"}},
{"type":"Feature","id":"847","geometry":{"type":"Point","coordinates":[4.838579,52.396814,0]},"properties":{"name":"Equinix, Inc.","description":"","peeringDB":"https://peeringdb.com/fac/80","website":"https://www.equinix.com/locations/netherlands-colocation/amsterdam-data-centers/am8/","Networks":"29","Exchanges":"7","Address":"Gyroscoopweg 2E & 2F","city":"Amsterdam","country":"NL","state":"","zipcode":"1042 AB","latitude":"52.396814","longitude":"4.838579"}},
{"type":"Feature","id":"862","geometry":{"type":"Point","coordinates":[8.557273,47.432702,0]},"properties":{"name":"Digital Realty","description":"","peeringDB":"https://peeringdb.com/fac/81","website":"https://www.digitalrealty.com/data-centers/zurich/sagereistrasse-35-glattbrugg-zurich-switzerland","Networks":"127","Exchanges":"4","Address":"Sägereistrasse 35","city":"Glattbrugg","country":"CH","state":"Zürich","zipcode":"8152","latitude":"47.432702","longitude":"8.557273"}},
{"type":"Feature","id":"877","geometry":{"type":"Point","coordinates":[8.519008,47.387702,0]},"properties":{"name":"Equinix, Inc.","description":"**FACILITY HAS BEEN SHUT DOWN**","peeringDB":"https://peeringdb.com/fac/82","website":"https://www.equinix.ch","Networks":"9","Exchanges":"1","Address":"Hardstrasse 235","city":"Zurich","country":"CH","state":"ZH","zipcode":"8005","latitude":"47.387702","longitude":"8.519008"}},
{"type":"Feature","id":"892","geometry":{"type":"Point","coordinates":[8.520255,47.387749,0]},"properties":{"name":"Equinix, Inc.","description":"This facility is part of an Equinix Campus with diverse, sub-10km [Campus Cross Connects] (https://www.equinix.com/resources/data-sheets/cross-connects/) available to the following IBX's:\n\n[Zurich ZH4] (https://www.peeringdb.com/fac/833)\n\n[Zurich ZH5] (https://www.peeringdb.com/fac/1515)","peeringDB":"https://peeringdb.com/fac/83","website":"https://www.equinix.com/locations/switzerland-colocation/zurich-data-centers/zh2/","Networks":"48","Exchanges":"6","Address":"Josefstrasse 225","city":"Zurich","country":"CH","state":"ZH","zipcode":"8005","latitude":"47.387749","longitude":"8.520255"}},
{"type":"Feature","id":"907","geometry":{"type":"Point","coordinates":[-121.889302,37.333885,0]},"properties":{"name":"KDWEB","description":"","peeringDB":"https://peeringdb.com/fac/84","website":"","Networks":"0","Exchanges":"0","Address":"50 W San Fernando","city":"San Jose","country":"US","state":"CA","zipcode":"95122","latitude":"37.333885","longitude":"-121.889302"}},
{"type":"Feature","id":"922","geometry":{"type":"Point","coordinates":[-121.988591,37.376348,0]},"properties":{"name":"Equinix, Inc.","description":"","peeringDB":"https://peeringdb.com/fac/85","website":"https://www.equinix.com/locations/americas-colocation/united-states-colocation/silicon-valley-data-centers/sv17/","Networks":"6","Exchanges":"1","Address":"3030 Corvin Dr","city":"Santa Clara","country":"US","state":"CA","zipcode":"95051","latitude":"37.376348","longitude":"-121.988591"}},
{"type":"Feature","id":"937","geometry":{"type":"Point","coordinates":[-122.338864,47.614358,0]},"properties":{"name":"Equinix, Inc.","description":"Westin Building","peeringDB":"https://peeringdb.com/fac/86","website":"https://www.equinix.com/locations/americas-colocation/united-states-colocation/seattle-data-centers/","Networks":"105","Exchanges":"5","Address":"2001 Sixth Avenue","city":"Seattle","country":"US","state":"WA","zipcode":"98121","latitude":"47.614358","longitude":"-122.338864"}},
{"type":"Feature","id":"952","geometry":{"type":"Point","coordinates":[-77.219692,38.908422,0]},"properties":{"name":"Equinix, Inc.","description":"","peeringDB":"https://peeringdb.com/fac/88","website":"http://www.equinix.com/","Networks":"7","Exchanges":"2","Address":"7990 Science Applications Ct","city":"Vienna","country":"US","state":"VA","zipcode":"22180","latitude":"38.908422","longitude":"-77.219692"}},
{"type":"Feature","id":"967","geometry":{"type":"Point","coordinates":[-0.183762,51.799899,0]},"properties":{"name":"Colt Technology Services Group","description":"","peeringDB":"https://peeringdb.com/fac/91","website":"https://www.colt.net","Networks":"7","Exchanges":"0","Address":"Welwyn Garden City, 20 Black Fan Road","city":"London","country":"GB","state":"","zipcode":"AL7 1QA","latitude":"51.799899","longitude":"-0.183762"}},
{"type":"Feature","id":"982","geometry":{"type":"Point","coordinates":[9.17865,45.49538,0]},"properties":{"name":"AtlasEdge Data Centres","description":"","peeringDB":"https://peeringdb.com/fac/97","website":"https://atlasedge.com/","Networks":"3","Exchanges":"0","Address":"Via Lancetti 23","city":"Milan","country":"IT","state":"","zipcode":"20159","latitude":"45.49538","longitude":"9.17865"}},
{"type":"Feature","id":"997","geometry":{"type":"Point","coordinates":[7.241053,47.130774,0]},"properties":{"name":"LAN Services AG","description":"","peeringDB":"https://peeringdb.com/fac/101","website":"","Networks":"0","Exchanges":"0","Address":"Chipotstrasse 15","city":"Biel/Bienne","country":"CH","state":"","zipcode":"2503","latitude":"47.130774","longitude":"7.241053"}},
{"type":"Feature","id":"1012","geometry":{"type":"Point","coordinates":[-118.259585,34.048897,0]},"properties":{"name":"Equinix, Inc.","description":"","peeringDB":"https://peeringdb.com/fac/102","website":"https://www.equinix.com/locations/americas-colocation/united-states-colocation/los-angeles-data-centers/la2/","Networks":"16","Exchanges":"5","Address":"818 W 7th St","city":"Los Angeles","country":"US","state":"CA","zipcode":"90017","latitude":"34.048897","longitude":"-118.259585"}},
{"type":"Feature","id":"1027","geometry":{"type":"Point","coordinates":[4.952501,52.356671,0]},"properties":{"name":"Digital Realty","description":"Interxion's data centres in the Science Park Campus (AMS9 and AMS17) are all interconnected with redundant dark fiber. It is possible to connect between any of the data centres with a standard campus cross connect. This includes cross connects to the NIKHEF building.\n\nThere is also a pre-installed Metro Connect solution between the Interxion Science Park Campus, the Interxion Schiphol Campus, and Interxion Amstel Business Park. This includes 10G and 100G Managed Wave and Dark Fiber solutions.","peeringDB":"https://peeringdb.com/fac/104","website":"https://www.digitalrealty.com/data-centers/amsterdam/science-park-121-schiphol-rijk-netherlands","Networks":"144","Exchanges":"10","Address":"Science Park 121","city":"Amsterdam","country":"NL","state":"","zipcode":"1098 XG","latitude":"52.356671","longitude":"4.952501"}},
{"type":"Feature","id":"1042","geometry":{"type":"Point","coordinates":[6.86722,51.18827,0]},"properties":{"name":"Digital Realty","description":"","peeringDB":"https://peeringdb.com/fac/106","website":"https://www.digitalrealty.com/data-centers/dusseldorf/in-der-steele-25-27a-dusseldorf-germany","Networks":"134","Exchanges":"5","Address":"In der Steele 29","city":"Düsseldorf","country":"DE","state":"Nordrhein-Westfalen","zipcode":"D-40599","latitude":"51.18827","longitude":"6.86722"}},
{"type":"Feature","id":"1057","geometry":{"type":"Point","coordinates":[8.630057,50.096962,0]},"properties":{"name":"Telehouse - Global Data Centers","description":"","peeringDB":"https://peeringdb.com/fac/108","website":"http://www.telehouse-rechenzentrum.de","Networks":"81","Exchanges":"5","Address":"Kleyerstrasse 75-87","city":"Frankfurt","country":"DE","state":"","zipcode":"60326","latitude":"50.096962","longitude":"8.630057"}},
{"type":"Feature","id":"1072","geometry":{"type":"Point","coordinates":[11.526173,48.139859,0]},"properties":{"name":"EdgeConneX Inc.","description":"**fka Cable & Wireless Munich**","peeringDB":"https://peeringdb.com/fac/109","website":"http://www.edgeconnex.com","Networks":"36","Exchanges":"2","Address":"Landsberger Str. 155","city":"Munich","country":"DE","state":"","zipcode":"80687","latitude":"48.139859","longitude":"11.526173"}},
{"type":"Feature","id":"1087","geometry":{"type":"Point","coordinates":[5.624974,52.030762,0]},"properties":{"name":"BIT BV","description":"","peeringDB":"https://peeringdb.com/fac/110","website":"http://www.bit.nl/","Networks":"8","Exchanges":"0","Address":"Kelvinstraat 63","city":"Ede","country":"NL","state":"","zipcode":"6716 BV","latitude":"52.030762","longitude":"5.624974"}},
{"type":"Feature","id":"1102","geometry":{"type":"Point","coordinates":[8.636254,50.103483,0]},"properties":{"name":"ColoCenter FrankfurtRheinMain GmbH","description":"","peeringDB":"https://peeringdb.com/fac/111","website":"http://www.colocenter.de/","Networks":"0","Exchanges":"0","Address":"Schwalbacher Strasse 60","city":"Frankfurt","country":"DE","state":"","zipcode":"65760","latitude":"50.103483","longitude":"8.636254"}},
{"type":"Feature","id":"1117","geometry":{"type":"Point","coordinates":[2.21513,48.887694,0]},"properties":{"name":"Lumen Technologies Inc","description":"","peeringDB":"https://peeringdb.com/fac/112","website":"http://www.lumen.com/","Networks":"10","Exchanges":"0","Address":"55 Avenue des Champs Pierreux","city":"Paris","country":"FR","state":"","zipcode":"92000","latitude":"48.887694","longitude":"2.21513"}},
{"type":"Feature","id":"1132","geometry":{"type":"Point","coordinates":[7.038047,43.628052,0]},"properties":{"name":"TAS France","description":"","peeringDB":"https://peeringdb.com/fac/117","website":"","Networks":"2","Exchanges":"0","Address":"World Trade Center 1 - B7","city":"Antibes","country":"FR","state":"","zipcode":"06560","latitude":"43.628052","longitude":"7.038047"}},
{"type":"Feature","id":"1147","geometry":{"type":"Point","coordinates":[6.84964,52.236979,0]},"properties":{"name":"Equinix, Inc.","description":"","peeringDB":"https://peeringdb.com/fac/118","website":"http://www.equinix.com","Networks":"24","Exchanges":"3","Address":"Auke Vleerstraat 1","city":"Enschede","country":"NL","state":"OV","zipcode":"7521 PE","latitude":"52.236979","longitude":"6.84964"}},
{"type":"Feature","id":"1162","geometry":{"type":"Point","coordinates":[8.623156,50.081709,0]},"properties":{"name":"Digital Realty","description":"fka: Digital Realty FRA11\nfka: Telecity FRA2\nfka: Redbus Interhouse","peeringDB":"https://peeringdb.com/fac/119","website":"https://www.digitalrealty.com/data-centers/frankfurt/lyoner-str-28-frankfurt","Networks":"25","Exchanges":"3","Address":"Lyoner Strasse 28","city":"Frankfurt","country":"DE","state":"Hessia","zipcode":"60528","latitude":"50.081709","longitude":"8.623156"}},
{"type":"Feature","id":"1177","geometry":{"type":"Point","coordinates":[-74.004561,40.72,0]},"properties":{"name":"Digital Realty","description":"fka: Telx NYC3","peeringDB":"https://peeringdb.com/fac/120","website":"https://www.digitalrealty.com","Networks":"36","Exchanges":"3","Address":"32 6th Ave (Avenue of the Americas)","city":"New York","country":"US","state":"NY","zipcode":"10013","latitude":"40.72","longitude":"-74.004561"}},
{"type":"Feature","id":"1192","geometry":{"type":"Point","coordinates":[-3.660963,40.466022,0]},"properties":{"name":"Asociación ESpanix","description":"","peeringDB":"https://peeringdb.com/fac/121","website":"https://www.espanix.net/","Networks":"37","Exchanges":"5","Address":"Mesena 80","city":"Madrid","country":"ES","state":"Madrid","zipcode":"28033","latitude":"40.466022","longitude":"-3.660963"}},
{"type":"Feature","id":"1207","geometry":{"type":"Point","coordinates":[2.137457,41.351557,0]},"properties":{"name":"Equinix, Inc.","description":"formerly ITconic Barcelona","peeringDB":"https://peeringdb.com/fac/122","website":"https://www.equinix.com/locations/spain-colocation/barcelona-data-centers/ba1/","Networks":"66","Exchanges":"3","Address":"Carrer de l'Acer 30-32","city":"Barcelona","country":"ES","state":"","zipcode":"08038","latitude":"41.351557","longitude":"2.137457"}},
{"type":"Feature","id":"1222","geometry":{"type":"Point","coordinates":[-84.39153,33.755456,0]},"properties":{"name":"Digital Realty","description":"","peeringDB":"https://peeringdb.com/fac/125","website":"https://www.digitalrealty.com","Networks":"172","Exchanges":"4","Address":"56 Marietta Street","city":"Atlanta","country":"US","state":"GA","zipcode":"30303","latitude":"33.755456","longitude":"-84.39153"}},
{"type":"Feature","id":"1237","geometry":{"type":"Point","coordinates":[-9.123454,38.787919,0]},"properties":{"name":"Equinix, Inc.","description":"Formerly ITconic Lisbon.","peeringDB":"https://peeringdb.com/fac/126","website":"https://www.equinix.com/locations/portugal-colocation/lisbon-data-centers/ls1/","Networks":"74","Exchanges":"4","Address":"Avenida Severiano Falcão 14","city":"Lisbon","country":"PT","state":"","zipcode":"2685","latitude":"38.787919","longitude":"-9.123454"}},
{"type":"Feature","id":"1252","geometry":{"type":"Point","coordinates":[-3.648584,40.536855,0]},"properties":{"name":"Equinix, Inc.","description":"Formerly ITconic Madrid-2.","peeringDB":"https://peeringdb.com/fac/127","website":"https://www.equinix.com/locations/spain-colocation/madrid-data-centers/md2/","Networks":"77","Exchanges":"7","Address":"Calle Valgrande 6","city":"Alcobendas","country":"ES","state":"Madrid","zipcode":"28108","latitude":"40.536855","longitude":"-3.648584"}},
{"type":"Feature","id":"1267","geometry":{"type":"Point","coordinates":[7.582093,47.546259,0]},"properties":{"name":"Industrielle Werke Basel Telecom","description":"","peeringDB":"https://peeringdb.com/fac/129","website":"","Networks":"21","Exchanges":"1","Address":"Dachsfelderstrasse 17","city":"Basel","country":"CH","state":"","zipcode":"4053","latitude":"47.546259","longitude":"7.582093"}},
{"type":"Feature","id":"1282","geometry":{"type":"Point","coordinates":[-3.621211,40.439323,0]},"properties":{"name":"Digital Realty","description":"","peeringDB":"https://peeringdb.com/fac/130","website":"https://www.digitalrealty.com/data-centers/madrid/calle-albasanz-71-madrid-spain","Networks":"222","Exchanges":"7","Address":"C/ Albasanz 71","city":"Madrid","country":"ES","state":"","zipcode":"28037","latitude":"40.439323","longitude":"-3.621211"}},
{"type":"Feature","id":"1297","geometry":{"type":"Point","coordinates":[151.188025,-33.921868,0]},"properties":{"name":"Equinix, Inc.","description":"This facility is part of an Equinix Campus with diverse, sub-10km [Campus Cross Connects] (https://www.equinix.com/resources/data-sheets/cross-connects/) available to the following IBX's:\n\n[Sydney SY3] (https://www.peeringdb.com/fac/1605)\n\n[Sydney SY4] (https://www.peeringdb.com/fac/3316)\n\n[Sydney SY5] (https://www.peeringdb.com/fac/8615)\n\n\nSY1 = Unit B\nSY2 = Unit C","peeringDB":"https://peeringdb.com/fac/131","website":"https://www.equinix.com/locations/asia-colocation/australia-colocation/sydney-data-centers/","Networks":"189","Exchanges":"5","Address":"639 Gardeners Road","city":"Sydney","country":"AU","state":"NSW","zipcode":"2020","latitude":"-33.921868","longitude":"151.188025"}},
{"type":"Feature","id":"1312","geometry":{"type":"Point","coordinates":[8.678206,50.116391,0]},"properties":{"name":"Equinix, Inc.","description":"**FACILITY HAS BEEN SHUT DOWN**","peeringDB":"https://peeringdb.com/fac/133","website":"https://www.equinix.com/","Networks":"14","Exchanges":"0","Address":"Taubenstrasse 7-9","city":"Frankfurt","country":"DE","state":"","zipcode":"60313","latitude":"50.116391","longitude":"8.678206"}},
{"type":"Feature","id":"1327","geometry":{"type":"Point","coordinates":[4.412116,50.857721,0]},"properties":{"name":"Lumen Technologies Inc","description":"","peeringDB":"https://peeringdb.com/fac/135","website":"http://www.level3.com/","Networks":"21","Exchanges":"2","Address":"Leon Grosjeanlaan 2","city":"Brussels","country":"BE","state":"","zipcode":"1140","latitude":"50.857721","longitude":"4.412116"}},
{"type":"Feature","id":"1342","geometry":{"type":"Point","coordinates":[2.111883,41.387314,0]},"properties":{"name":"CSUC","description":"","peeringDB":"https://peeringdb.com/fac/138","website":"http://www.catnix.net/EN/","Networks":"8","Exchanges":"1","Address":"Gran Capita, 2 - 4 (Edifici Nexus)","city":"Barcelona","country":"ES","state":"","zipcode":"E-08034","latitude":"41.387314","longitude":"2.111883"}},
{"type":"Feature","id":"1357","geometry":{"type":"Point","coordinates":[6.144251,46.203607,0]},"properties":{"name":"Equinix, Inc.","description":"This facility is part of an Equinix Campus with diverse, sub-10km [Campus Cross Connects] (https://www.equinix.com/resources/data-sheets/cross-connects/) available to the following IBX's:\n\n[Geneva GV2] (https://www.peeringdb.com/fac/826)","peeringDB":"https://peeringdb.com/fac/139","website":"https://www.equinix.com/locations/switzerland-colocation/geneva-data-centers/gv1/","Networks":"37","Exchanges":"2","Address":"Rue de la Confédération 6","city":"Geneva","country":"CH","state":"GE","zipcode":"1204","latitude":"46.203607","longitude":"6.144251"}},
{"type":"Feature","id":"1372","geometry":{"type":"Point","coordinates":[139.764809,35.686406,0]},"properties":{"name":"Telehouse - Global Data Centers","description":"","peeringDB":"https://peeringdb.com/fac/142","website":"https://www.telehouse.com/","Networks":"42","Exchanges":"2","Address":"Otemachi Building","city":"Tokyo","country":"JP","state":"","zipcode":"100-0004","latitude":"35.686406","longitude":"139.764809"}},
{"type":"Feature","id":"1387","geometry":{"type":"Point","coordinates":[127.051167,37.488139,0]},"properties":{"name":"KINX Inc.","description":"","peeringDB":"https://peeringdb.com/fac/143","website":"https://www.kinx.net/?lang=en","Networks":"45","Exchanges":"3","Address":"5F, Daelim Acrotel, 13, Eonju-ro 30-gil, Gangnam-gu","city":"Seoul","country":"KR","state":"","zipcode":"","latitude":"37.488139","longitude":"127.051167"}},
{"type":"Feature","id":"1402","geometry":{"type":"Point","coordinates":[-77.238951,38.931419,0]},"properties":{"name":"Equinix, Inc.","description":"","peeringDB":"https://peeringdb.com/fac/144","website":"http://www.equinix.com/","Networks":"6","Exchanges":"2","Address":"8502A Tyco Rd","city":"Vienna","country":"US","state":"VA","zipcode":"22180","latitude":"38.931419","longitude":"-77.238951"}},
{"type":"Feature","id":"1417","geometry":{"type":"Point","coordinates":[-75.161377,39.959668,0]},"properties":{"name":"Equinix, Inc.","description":"","peeringDB":"https://peeringdb.com/fac/146","website":"http://www.equinix.com/","Networks":"19","Exchanges":"1","Address":"401 North Broad Street","city":"Philadelphia","country":"US","state":"PA","zipcode":"19108","latitude":"39.959668","longitude":"-75.161377"}},
{"type":"Feature","id":"1432","geometry":{"type":"Point","coordinates":[-121.910133,37.338431,0]},"properties":{"name":"VPLS","description":"","peeringDB":"https://peeringdb.com/fac/147","website":"http://www.evocative.com","Networks":"7","Exchanges":"0","Address":"534 Stockton Avenue","city":"San Jose","country":"US","state":"CA","zipcode":"95126","latitude":"37.338431","longitude":"-121.910133"}},
{"type":"Feature","id":"1447","geometry":{"type":"Point","coordinates":[12.377482,55.728092,0]},"properties":{"name":"Digital Realty","description":"","peeringDB":"https://peeringdb.com/fac/148","website":"https://www.digitalrealty.com/data-centers/copenhagen/industriparken-area-ballerup-denmark","Networks":"92","Exchanges":"7","Address":"Industriparken 20A","city":"Copenhagen","country":"DK","state":"","zipcode":"2750","latitude":"55.728092","longitude":"12.377482"}},
{"type":"Feature","id":"1462","geometry":{"type":"Point","coordinates":[-80.194926,25.848356,0]},"properties":{"name":"iM Critical","description":"","peeringDB":"https://peeringdb.com/fac/149","website":"https://www.imcritical.com/","Networks":"6","Exchanges":"1","Address":"100 NE 80th. Terrace","city":"Miami","country":"US","state":"FL","zipcode":"33138","latitude":"25.848356","longitude":"-80.194926"}},
{"type":"Feature","id":"1477","geometry":{"type":"Point","coordinates":[37.528861,55.652639,0]},"properties":{"name":"MMTS-9 JSC","description":"","peeringDB":"https://peeringdb.com/fac/152","website":"http://www.mmts9.ru","Networks":"262","Exchanges":"14","Address":"7, Butlerova street","city":"Moscow","country":"RU","state":"","zipcode":"117485,","latitude":"55.652639","longitude":"37.528861"}},
{"type":"Feature","id":"1492","geometry":{"type":"Point","coordinates":[6.86728,51.18819,0]},"properties":{"name":"Lumen Technologies Inc","description":"","peeringDB":"https://peeringdb.com/fac/153","website":"http://www.level3.com","Networks":"13","Exchanges":"2","Address":"In Der Steele 37A","city":"Düsseldorf","country":"DE","state":"North Rhine-Westphalia","zipcode":"40599","latitude":"51.18819","longitude":"6.86728"}},
{"type":"Feature","id":"1507","geometry":{"type":"Point","coordinates":[9.103887,45.476177,0]},"properties":{"name":"Telnet","description":"","peeringDB":"https://peeringdb.com/fac/154","website":"https://www.telnet.it","Networks":"8","Exchanges":"2","Address":"Via Caldera 21 - Easy Point (Building F)","city":"Milan","country":"IT","state":"Italy","zipcode":"20153","latitude":"45.476177","longitude":"9.103887"}},
{"type":"Feature","id":"1522","geometry":{"type":"Point","coordinates":[13.369905,52.465779,0]},"properties":{"name":"Speedbone GmbH","description":"","peeringDB":"https://peeringdb.com/fac/155","website":"https://www.speedbone.de","Networks":"44","Exchanges":"6","Address":"Alboinstr. 36 - 42","city":"Berlin","country":"DE","state":"DE","zipcode":"12103","latitude":"52.465779","longitude":"13.369905"}},
{"type":"Feature","id":"1537","geometry":{"type":"Point","coordinates":[17.955657,59.362574,0]},"properties":{"name":"Equinix, Inc.","description":"This facility has diverse, sub-10km [Fiber Connect] (https://docs.equinix.com/en-us/Content/Interconnection/Fiber-Connect/FC-fiber-connect.htm) routes available to the following IBX's:\n\n[Stockholm SK3] (https://www.peeringdb.com/fac/3193)","peeringDB":"https://peeringdb.com/fac/156","website":"https://www.equinix.com/locations/europe-colocation/sweden-colocation/stockholm-data-centers/sk1/","Networks":"115","Exchanges":"13","Address":"Mariehällsvägen 36","city":"Stockholm","country":"SE","state":"","zipcode":"S-161 02","latitude":"59.362574","longitude":"17.955657"}},
{"type":"Feature","id":"1552","geometry":{"type":"Point","coordinates":[7.478187,46.964845,0]},"properties":{"name":"NTS Workspace AG","description":"","peeringDB":"https://peeringdb.com/fac/157","website":"http://www.colobern.ch/","Networks":"16","Exchanges":"1","Address":"Wölflistrasse 1D","city":"Bern","country":"CH","state":"Bern","zipcode":"3006","latitude":"46.964845","longitude":"7.478187"}},
{"type":"Feature","id":"1567","geometry":{"type":"Point","coordinates":[12.301459,55.662,0]},"properties":{"name":"GlobalConnect Group","description":"","peeringDB":"https://peeringdb.com/fac/158","website":"https://www.globalconnect.dk/tjenester/datacenter","Networks":"55","Exchanges":"7","Address":"Hørskætten 3-5 and 12","city":"Taastrup","country":"DK","state":"","zipcode":"2630","latitude":"55.662","longitude":"12.301459"}},
{"type":"Feature","id":"1582","geometry":{"type":"Point","coordinates":[153.027805,-27.465681,0]},"properties":{"name":"PIPE Networks","description":"","peeringDB":"https://peeringdb.com/fac/159","website":"http://www.pipenetworks.com","Networks":"7","Exchanges":"1","Address":"Level 9,","city":"BRISBANE","country":"AU","state":"QL","zipcode":"4000","latitude":"-27.465681","longitude":"153.027805"}},
{"type":"Feature","id":"1597","geometry":{"type":"Point","coordinates":[151.207641,-33.872665,0]},"properties":{"name":"PIPE Networks","description":"","peeringDB":"https://peeringdb.com/fac/160","website":"http://www.pipenetworks.com","Networks":"3","Exchanges":"1","Address":"Level 13,","city":"SYDNEY","country":"AU","state":"QLD","zipcode":"2000","latitude":"-33.872665","longitude":"151.207641"}},
{"type":"Feature","id":"1612","geometry":{"type":"Point","coordinates":[144.956726,-37.819171,0]},"properties":{"name":"PIPE Networks","description":"","peeringDB":"https://peeringdb.com/fac/161","website":"http://www.pipenetworks.com","Networks":"2","Exchanges":"1","Address":"Level 3,","city":"MELBOURNE","country":"AU","state":"VIC","zipcode":"3000","latitude":"-37.819171","longitude":"144.956726"}},
{"type":"Feature","id":"1627","geometry":{"type":"Point","coordinates":[138.594121,-34.927233,0]},"properties":{"name":"PIPE Networks","description":"","peeringDB":"https://peeringdb.com/fac/162","website":"http://www.pipenetworks.com","Networks":"4","Exchanges":"1","Address":"Level 2,","city":"Adelaide","country":"AU","state":"SA","zipcode":"5000","latitude":"-34.927233","longitude":"138.594121"}},
{"type":"Feature","id":"1642","geometry":{"type":"Point","coordinates":[147.328921,-42.881849,0]},"properties":{"name":"PIPE Networks","description":"","peeringDB":"https://peeringdb.com/fac/163","website":"http://www.pipenetworks.com","Networks":"2","Exchanges":"1","Address":"Level 2,","city":"HOBART","country":"AU","state":"TAS","zipcode":"7000","latitude":"-42.881849","longitude":"147.328921"}},
{"type":"Feature","id":"1657","geometry":{"type":"Point","coordinates":[-6.41897,53.296306,0]},"properties":{"name":"Equinix, Inc.","description":"Connectivity within the Dublin metro using [Fibre Connect] (https://www.equinix.com/resources/data-sheets/fiber-connect) is available to the following IBX's:\n\n[Dublin DB2] (https://www.peeringdb.com/fac/178)","peeringDB":"https://peeringdb.com/fac/164","website":"https://www.equinix.com/locations/ireland-colocation/dublin-data-centers/db1/","Networks":"44","Exchanges":"4","Address":"Unit 4027, Kingswood Road","city":"Dublin","country":"IE","state":"","zipcode":"","latitude":"53.296306","longitude":"-6.41897"}},
{"type":"Feature","id":"1672","geometry":{"type":"Point","coordinates":[-46.814577,-23.497589,0]},"properties":{"name":"Equinix, Inc.","description":"","peeringDB":"https://peeringdb.com/fac/165","website":"https://www.equinix.com/locations/americas-colocation/brazil-colocation/sao-paulo-data-centers/sp4/","Networks":"542","Exchanges":"6","Address":"Av. Ceci, 1900 - Res. Tambore","city":"Barueri","country":"BR","state":"SP","zipcode":"06455000","latitude":"-23.497589","longitude":"-46.814577"}},
{"type":"Feature","id":"1687","geometry":{"type":"Point","coordinates":[-3.574684,40.447968,0]},"properties":{"name":"Verizon Communications, Inc.","description":"","peeringDB":"https://peeringdb.com/fac/166","website":"http://www.verizonenterprise.com","Networks":"4","Exchanges":"0","Address":"C/ Yecora 4","city":"Madrid","country":"ES","state":"","zipcode":"","latitude":"40.447968","longitude":"-3.574684"}},
{"type":"Feature","id":"1702","geometry":{"type":"Point","coordinates":[-123.111935,49.284697,0]},"properties":{"name":"Polaris Realty","description":"","peeringDB":"https://peeringdb.com/fac/167","website":"http://www.harbourcentre.com/","Networks":"64","Exchanges":"5","Address":"555 West Hastings St.","city":"Vancouver","country":"CA","state":"BC","zipcode":"V6B 4N6","latitude":"49.284697","longitude":"-123.111935"}},
{"type":"Feature","id":"1717","geometry":{"type":"Point","coordinates":[139.749055,35.576366,0]},"properties":{"name":"Equinix, Inc.","description":"","peeringDB":"https://peeringdb.com/fac/168","website":"https://www.equinix.com/locations/asia-colocation/japan-colocation/tokyo-data-centers/ty1/","Networks":"27","Exchanges":"2","Address":"TRC-C Building B Block, 4F 5-1","city":"Tokyo","country":"JP","state":"","zipcode":"143-0006","latitude":"35.576366","longitude":"139.749055"}},
{"type":"Feature","id":"1732","geometry":{"type":"Point","coordinates":[114.11932,22.365581,0]},"properties":{"name":"Equinix, Inc.","description":"This facility is part of an Equinix Campus with diverse, sub-10km [Campus Cross Connects] (https://www.equinix.com/resources/data-sheets/cross-connects/) available to the following IBX's:\n\n[Hong Kong HK2] (https://www.peeringdb.com/fac/1118)\n\n[Hong Kong HK3] (https://www.peeringdb.com/fac/2361)","peeringDB":"https://peeringdb.com/fac/170","website":"https://www.equinix.com/locations/asia-colocation/hong-kong-colocation/hong-kong-data-center/hk1/","Networks":"182","Exchanges":"6","Address":"17/F Global Gateway (Hong Kong)","city":"Tsuen Wan","country":"HK","state":"Hong Kong","zipcode":"","latitude":"22.365581","longitude":"114.11932"}},
{"type":"Feature","id":"1747","geometry":{"type":"Point","coordinates":[-112.072042,33.452003,0]},"properties":{"name":"Digital Realty","description":"","peeringDB":"https://peeringdb.com/fac/171","website":"https://www.digitalrealty.com","Networks":"28","Exchanges":"3","Address":"120 East Van Buren Street","city":"Phoenix","country":"US","state":"AZ","zipcode":"85004","latitude":"33.452003","longitude":"-112.072042"}},
{"type":"Feature","id":"1762","geometry":{"type":"Point","coordinates":[-121.98778,37.373412,0]},"properties":{"name":"Lumen Technologies Inc","description":"","peeringDB":"https://peeringdb.com/fac/176","website":"http://www.level3.com/","Networks":"8","Exchanges":"1","Address":"1380 Kifer Rd.","city":"Sunnyvale","country":"US","state":"CA","zipcode":"95051","latitude":"37.373412","longitude":"-121.98778"}},
{"type":"Feature","id":"1777","geometry":{"type":"Point","coordinates":[-6.365538,53.334251,0]},"properties":{"name":"Digital Realty","description":"DUB1 and DUB2 are interconnected with redundant dark fibre. It is possible to connect between either of the data centes with a standard cross connect.\n\nThere is also a pre-installed Metro Connect solution between DUB1&2 and DUB3.1G and 10G connections with 3 day provisioning SLA. 40G and 100G available, details on application.","peeringDB":"https://peeringdb.com/fac/177","website":"https://www.digitalrealty.com/data-centers/dublin/unit-35-lavery-avenue-parkwest-dublin-ireland","Networks":"55","Exchanges":"3","Address":"Unit 35 Lavery Avenue","city":"Dublin","country":"IE","state":"","zipcode":"","latitude":"53.334251","longitude":"-6.365538"}},
{"type":"Feature","id":"1792","geometry":{"type":"Point","coordinates":[-6.439957,53.318647,0]},"properties":{"name":"Equinix, Inc.","description":"Connectivity within the Dublin metro using [Fibre Connect] (https://www.equinix.com/resources/data-sheets/fiber-connect) is available to the following IBX's:\n\n[Dublin DB1] (https://www.peeringdb.com/fac/164)","peeringDB":"https://peeringdb.com/fac/178","website":"https://www.equinix.com/locations/ireland-colocation/dublin-data-centers/db2/","Networks":"48","Exchanges":"3","Address":"Kilcarbery Business Park","city":"Dublin","country":"IE","state":"","zipcode":"","latitude":"53.318647","longitude":"-6.439957"}},
{"type":"Feature","id":"1807","geometry":{"type":"Point","coordinates":[-3.671891,40.513497,0]},"properties":{"name":"Equinix, Inc.","description":"Formerly ITconic Madrid-1","peeringDB":"https://peeringdb.com/fac/179","website":"https://www.equinix.com/locations/spain-colocation/madrid-data-centers/md1/","Networks":"15","Exchanges":"1","Address":"Calle Isabel Colbrand 6-8","city":"Madrid","country":"ES","state":"","zipcode":"28050","latitude":"40.513497","longitude":"-3.671891"}},
{"type":"Feature","id":"1822","geometry":{"type":"Point","coordinates":[-6.366707,53.412081,0]},"properties":{"name":"Digital Realty","description":"","peeringDB":"https://peeringdb.com/fac/180","website":"https://www.digitalrealty.com/data-centers/dublin/blanchardstown-corp-pk-unit-9-dublin","Networks":"9","Exchanges":"0","Address":"Unit 9 Blanchardstown Corporate Park","city":"Dublin","country":"IE","state":"","zipcode":"","latitude":"53.412081","longitude":"-6.366707"}},
{"type":"Feature","id":"1837","geometry":{"type":"Point","coordinates":[2.296095,48.899823,0]},"properties":{"name":"Global Switch","description":"","peeringDB":"https://peeringdb.com/fac/181","website":"https://www.globalswitch.com/locations/paris","Networks":"30","Exchanges":"0","Address":"7-9 rue petit","city":"Paris","country":"FR","state":"","zipcode":"92110","latitude":"48.899823","longitude":"2.296095"}},
{"type":"Feature","id":"1852","geometry":{"type":"Point","coordinates":[-87.629928,41.874302,0]},"properties":{"name":"Printer's Square","description":"","peeringDB":"https://peeringdb.com/fac/184","website":"http://www.printerssquare.com","Networks":"3","Exchanges":"0","Address":"600 S Federal","city":"Chicago","country":"US","state":"IL","zipcode":"60605","latitude":"41.874302","longitude":"-87.629928"}},
{"type":"Feature","id":"1867","geometry":{"type":"Point","coordinates":[11.17706,49.38991,0]},"properties":{"name":"NorthC Deutschland GmbH","description":"This facility is in the area of Nuremberg, Germany.","peeringDB":"https://peeringdb.com/fac/185","website":"https://northcdatacenters.de","Networks":"20","Exchanges":"2","Address":"Am Tower 5","city":"Nuremberg","country":"DE","state":"Bavaria","zipcode":"90475","latitude":"49.38991","longitude":"11.17706"}},
{"type":"Feature","id":"1882","geometry":{"type":"Point","coordinates":[-86.172275,39.75988,0]},"properties":{"name":"Netrality Data Centers","description":"Netrality owns and operates highly interconnected edge data centers. The Netrality portfolio consists of nine strategic interconnection data centers: 717 South Wells in Chicago, IL, 1301 Fannin in Houston, TX, 1102 Grand in Kansas City, MO, 7801 Nieman Road, Shawnee KS, 401 North Broad in Philadelphia, PA, 210 North Tucker, 900 Walnut in St. Louis, MO, 701 West Henry and 733 West Henry in Indianapolis, Indiana. \n\nFeel free to ping us anytime with questions; bcampbell@netrality.com","peeringDB":"https://peeringdb.com/fac/186","website":"https://netrality.com/locations/indy-telcom-center/","Networks":"39","Exchanges":"2","Address":"733 W. Henry St","city":"Indianapolis","country":"US","state":"IN","zipcode":"46225","latitude":"39.75988","longitude":"-86.172275"}},
{"type":"Feature","id":"1897","geometry":{"type":"Point","coordinates":[3.734616,51.063866,0]},"properties":{"name":"Versatel","description":"","peeringDB":"https://peeringdb.com/fac/187","website":"http://www.versatel.be/","Networks":"0","Exchanges":"0","Address":"Stapelplein 70B","city":"Gent","country":"BE","state":"","zipcode":"9000","latitude":"51.063866","longitude":"3.734616"}},
{"type":"Feature","id":"1912","geometry":{"type":"Point","coordinates":[-74.008333,40.717664,0]},"properties":{"name":"FiberNet Telecom Group","description":"","peeringDB":"https://peeringdb.com/fac/188","website":"http://www.ftgx.com","Networks":"5","Exchanges":"1","Address":"60 Hudson St","city":"New York","country":"US","state":"NY","zipcode":"10013","latitude":"40.717664","longitude":"-74.008333"}},
{"type":"Feature","id":"1927","geometry":{"type":"Point","coordinates":[-74.003203,40.741355,0]},"properties":{"name":"FiberNet Telecom Group","description":"","peeringDB":"https://peeringdb.com/fac/189","website":"http://www.ftgx.com","Networks":"1","Exchanges":"1","Address":"111 Eighth Ave","city":"New York","country":"US","state":"NY","zipcode":"10011","latitude":"40.741355","longitude":"-74.003203"}},
{"type":"Feature","id":"1942","geometry":{"type":"Point","coordinates":[4.402951,51.264294,0]},"properties":{"name":"LCL Belgium","description":"","peeringDB":"https://peeringdb.com/fac/190","website":"http://www.lcl.be","Networks":"13","Exchanges":"3","Address":"Noorderlaan 133","city":"Antwerp","country":"BE","state":"","zipcode":"2000","latitude":"51.264294","longitude":"4.402951"}},
{"type":"Feature","id":"1957","geometry":{"type":"Point","coordinates":[4.41733,51.262686,0]},"properties":{"name":"Versatel","description":"","peeringDB":"https://peeringdb.com/fac/191","website":"http://www.versatel.be","Networks":"0","Exchanges":"0","Address":"Noorderlaan 113","city":"Antwerp","country":"BE","state":"","zipcode":"2030","latitude":"51.262686","longitude":"4.41733"}},
{"type":"Feature","id":"1972","geometry":{"type":"Point","coordinates":[11.662742,48.135973,0]},"properties":{"name":"Lumen Technologies Inc","description":"","peeringDB":"https://peeringdb.com/fac/192","website":"http://www.level3.com","Networks":"20","Exchanges":"1","Address":"Wamslerstrasse 8","city":"Munich","country":"DE","state":"","zipcode":"81829","latitude":"48.135973","longitude":"11.662742"}},
{"type":"Feature","id":"1987","geometry":{"type":"Point","coordinates":[4.455068,50.887474,0]},"properties":{"name":"LCL Belgium","description":"LCL Diegem or LCL Brussels North is the best connected data centre in Belgium. Please send us an email for the carrier list. We have also ECX Fabric available for direcet connections to cloud providers.","peeringDB":"https://peeringdb.com/fac/193","website":"http://www.lcl.be/","Networks":"44","Exchanges":"4","Address":"Kouterveldstraat 13","city":"Brussels","country":"BE","state":"","zipcode":"1831","latitude":"50.887474","longitude":"4.455068"}},
{"type":"Feature","id":"2002","geometry":{"type":"Point","coordinates":[151.182583,-33.883255,0]},"properties":{"name":"AAPT (TNZA)","description":"","peeringDB":"https://peeringdb.com/fac/195","website":"http://www.aapt.com.au","Networks":"1","Exchanges":"1","Address":"30 Ross Street","city":"Sydney","country":"AU","state":"QLD","zipcode":"2037","latitude":"-33.883255","longitude":"151.182583"}},
{"type":"Feature","id":"2017","geometry":{"type":"Point","coordinates":[151.197691,-33.875599,0]},"properties":{"name":"DigiCo","description":"","peeringDB":"https://peeringdb.com/fac/196","website":"http://www.iseek.com.au","Networks":"107","Exchanges":"4","Address":"400 Harris Street","city":"Sydney","country":"AU","state":"NSW","zipcode":"2007","latitude":"-33.875599","longitude":"151.197691"}},
{"type":"Feature","id":"2032","geometry":{"type":"Point","coordinates":[151.203797,-33.881547,0]},"properties":{"name":"AAPT (TNZA)","description":"","peeringDB":"https://peeringdb.com/fac/197","website":"http://www.aapt.com.au","Networks":"0","Exchanges":"1","Address":"187 Thomas Street","city":"Sydney","country":"AU","state":"QLD","zipcode":"2006","latitude":"-33.881547","longitude":"151.203797"}},
{"type":"Feature","id":"2047","geometry":{"type":"Point","coordinates":[153.030416,-27.467146,0]},"properties":{"name":"AAPT (TNZA)","description":"","peeringDB":"https://peeringdb.com/fac/198","website":"http://www.aapt.com.au","Networks":"1","Exchanges":"1","Address":"Level 8, 123 Eagle Street","city":"Brisbane","country":"AU","state":"QL","zipcode":"4000","latitude":"-27.467146","longitude":"153.030416"}},
{"type":"Feature","id":"2062","geometry":{"type":"Point","coordinates":[153.03099,-27.459649,0]},"properties":{"name":"AAPT (TNZA)","description":"","peeringDB":"https://peeringdb.com/fac/199","website":"http://www.appt.com.au","Networks":"2","Exchanges":"1","Address":"Level 1, 100 Wickham Street","city":"Brisbane","country":"AU","state":"QL","zipcode":"4006","latitude":"-27.459649","longitude":"153.03099"}},
{"type":"Feature","id":"2077","geometry":{"type":"Point","coordinates":[144.956817,-37.817684,0]},"properties":{"name":"AAPT (TNZA)","description":"","peeringDB":"https://peeringdb.com/fac/200","website":"http://www.aapt.com.au","Networks":"1","Exchanges":"1","Address":"Level 5, 530 Collins Street","city":"Melbourne","country":"AU","state":"VIC","zipcode":"3000","latitude":"-37.817684","longitude":"144.956817"}},
{"type":"Feature","id":"2092","geometry":{"type":"Point","coordinates":[138.6013,-34.926075,0]},"properties":{"name":"AAPT (TNZA)","description":"","peeringDB":"https://peeringdb.com/fac/201","website":"http://www.aapt.com.au","Networks":"1","Exchanges":"1","Address":"Level 1, 45 Pirie Street","city":"Adelaide","country":"AU","state":"SA","zipcode":"5000","latitude":"-34.926075","longitude":"138.6013"}},
{"type":"Feature","id":"2107","geometry":{"type":"Point","coordinates":[11.063356,49.453955,0]},"properties":{"name":"Treureal Property Management GmbH","description":"","peeringDB":"https://peeringdb.com/fac/203","website":"http://www.deutschherrnkarree.de/","Networks":"15","Exchanges":"1","Address":"Deutschherrnstraße 15-19","city":"Nuremberg","country":"DE","state":"Bavaria","zipcode":"90429","latitude":"49.453955","longitude":"11.063356"}},
{"type":"Feature","id":"2122","geometry":{"type":"Point","coordinates":[18.045546,59.31535,0]},"properties":{"name":"AB Stokab","description":"","peeringDB":"https://peeringdb.com/fac/206","website":"http://www.stokab.se","Networks":"18","Exchanges":"0","Address":"Zinkens Väg 47","city":"Stockholm","country":"SE","state":"","zipcode":"11741","latitude":"59.31535","longitude":"18.045546"}},
{"type":"Feature","id":"2137","geometry":{"type":"Point","coordinates":[18.089786,59.298407,0]},"properties":{"name":"AB Stokab","description":"","peeringDB":"https://peeringdb.com/fac/207","website":"http://www.stokab.se","Networks":"9","Exchanges":"0","Address":"Kalmgatan 4","city":"Stockholm","country":"SE","state":"","zipcode":"12145","latitude":"59.298407","longitude":"18.089786"}},
{"type":"Feature","id":"2152","geometry":{"type":"Point","coordinates":[17.916696,59.422226,0]},"properties":{"name":"Digital Realty","description":"","peeringDB":"https://peeringdb.com/fac/208","website":"https://www.interxion.com/","Networks":"119","Exchanges":"12","Address":"Esbogatan 11","city":"Stockholm","country":"SE","state":"","zipcode":"16494","latitude":"59.422226","longitude":"17.916696"}},
{"type":"Feature","id":"2167","geometry":{"type":"Point","coordinates":[-74.025031,40.761825,0]},"properties":{"name":"Lumen Technologies Inc","description":"","peeringDB":"https://peeringdb.com/fac/209","website":"http://www.level3.com","Networks":"2","Exchanges":"0","Address":"300 JFK Boulevard East","city":"Weehawken","country":"US","state":"NJ","zipcode":"07086","latitude":"40.761825","longitude":"-74.025031"}},
{"type":"Feature","id":"2182","geometry":{"type":"Point","coordinates":[103.772471,1.297541,0]},"properties":{"name":"noc@sox.net.sg","description":"","peeringDB":"https://peeringdb.com/fac/211","website":"http://www.sox.net.sg","Networks":"2","Exchanges":"1","Address":"National University of Singapore / Computer Centre","city":"Singapore","country":"SG","state":"","zipcode":"117584","latitude":"1.297541","longitude":"103.772471"}},
{"type":"Feature","id":"2197","geometry":{"type":"Point","coordinates":[4.414322,51.930359,0]},"properties":{"name":"TCNPP","description":"","peeringDB":"https://peeringdb.com/fac/212","website":"http://www.tcnpp.com/","Networks":"16","Exchanges":"2","Address":"Vlaardingweg 62 - 415","city":"Rotterdam","country":"NL","state":"","zipcode":"3044","latitude":"51.930359","longitude":"4.414322"}},
{"type":"Feature","id":"2212","geometry":{"type":"Point","coordinates":[5.845593,50.995925,0]},"properties":{"name":"Unilogic Networks B.V.","description":"","peeringDB":"https://peeringdb.com/fac/213","website":"http://www.unilogicnetworks.net/","Networks":"2","Exchanges":"1","Address":"Bergerweg 120","city":"Sittard","country":"NL","state":"Limburg","zipcode":"6135KD","latitude":"50.995925","longitude":"5.845593"}},
{"type":"Feature","id":"2227","geometry":{"type":"Point","coordinates":[14.482978,50.060164,0]},"properties":{"name":"CE Colo Czech s.r.o.","description":"main regional interconnection facility with ~100 networks present","peeringDB":"https://peeringdb.com/fac/214","website":"http://www.cecolo.com/","Networks":"144","Exchanges":"7","Address":"Nad Elektrarnou 1428/47","city":"Prague","country":"CZ","state":"","zipcode":"10600","latitude":"50.060164","longitude":"14.482978"}},
{"type":"Feature","id":"2242","geometry":{"type":"Point","coordinates":[14.451122,50.08103,0]},"properties":{"name":"Radiokomunikace, a.s.","description":"","peeringDB":"https://peeringdb.com/fac/215","website":"https://www.cra.cz","Networks":"15","Exchanges":"2","Address":"Mahlerovy sady 1","city":"Prague","country":"CZ","state":"Prague","zipcode":"130 00","latitude":"50.08103","longitude":"14.451122"}},
{"type":"Feature","id":"2257","geometry":{"type":"Point","coordinates":[14.475889,50.078094,0]},"properties":{"name":"GTS Novera, a.s.","description":"","peeringDB":"https://peeringdb.com/fac/216","website":"http://www.gtsnovera.cz/","Networks":"20","Exchanges":"2","Address":"Vinohradská 190","city":"Prague","country":"CZ","state":"","zipcode":"13000","latitude":"50.078094","longitude":"14.475889"}},
{"type":"Feature","id":"2272","geometry":{"type":"Point","coordinates":[14.428607,50.062152,0]},"properties":{"name":"T-Systems Pragonet, a.s.","description":"","peeringDB":"https://peeringdb.com/fac/217","website":"http://www.pragonet.cz/","Networks":"1","Exchanges":"0","Address":"5. května 65","city":"Prague","country":"CZ","state":"","zipcode":"14000","latitude":"50.062152","longitude":"14.428607"}},
{"type":"Feature","id":"2287","geometry":{"type":"Point","coordinates":[6.86608,51.188,0]},"properties":{"name":"Arelion","description":"","peeringDB":"https://peeringdb.com/fac/218","website":"https://www.arelion.com/","Networks":"11","Exchanges":"2","Address":"In der Steele 43","city":"Düsseldorf","country":"DE","state":"","zipcode":"40599","latitude":"51.188","longitude":"6.86608"}},
{"type":"Feature","id":"2302","geometry":{"type":"Point","coordinates":[-71.060266,42.354692,0]},"properties":{"name":"Markley Group, LLC","description":"","peeringDB":"https://peeringdb.com/fac/219","website":"http://www.markleygroup.com/","Networks":"77","Exchanges":"1","Address":"1 Summer Street","city":"Boston","country":"US","state":"MA","zipcode":"02110","latitude":"42.354692","longitude":"-71.060266"}},
{"type":"Feature","id":"2317","geometry":{"type":"Point","coordinates":[6.163425,49.637537,0]},"properties":{"name":"BCE","description":"","peeringDB":"https://peeringdb.com/fac/220","website":"https://www.bce.lu","Networks":"13","Exchanges":"1","Address":"43, Boulevard Pierre Frieden","city":"Luxembourg","country":"LU","state":"Luxembourg","zipcode":"1543","latitude":"49.637537","longitude":"6.163425"}},
{"type":"Feature","id":"2332","geometry":{"type":"Point","coordinates":[12.377342,55.661921,0]},"properties":{"name":"Telia Company","description":"","peeringDB":"https://peeringdb.com/fac/222","website":"http://www.telia.dk/","Networks":"17","Exchanges":"0","Address":"Sydvestvej 100","city":"Copenhagen","country":"DK","state":"","zipcode":"2600","latitude":"55.661921","longitude":"12.377342"}},
{"type":"Feature","id":"2347","geometry":{"type":"Point","coordinates":[114.246512,22.266098,0]},"properties":{"name":"iAdvantage Hong Kong","description":"","peeringDB":"https://peeringdb.com/fac/225","website":"http://www.iadvantage.net/","Networks":"258","Exchanges":"4","Address":"399 Chai Wan Road","city":"Hong Kong","country":"HK","state":"","zipcode":"","latitude":"22.266098","longitude":"114.246512"}},
{"type":"Feature","id":"2362","geometry":{"type":"Point","coordinates":[5.373865,43.310818,0]},"properties":{"name":"Digital Realty","description":"Interxion offer Metro Connect services between MRS1 and MRS2/3/4.  Metro Connect services can be dark fibre (three separate routes routes available), or protected Managed Wave (10Gbps or 100Gbs).","peeringDB":"https://peeringdb.com/fac/226","website":"https://www.interxion.com/","Networks":"195","Exchanges":"10","Address":"MRS1: 40 Avenue Roger Salengro","city":"Marseille","country":"FR","state":"","zipcode":"MRS1: 13003  MRS2/3: 13015","latitude":"43.310818","longitude":"5.373865"}},
{"type":"Feature","id":"2377","geometry":{"type":"Point","coordinates":[2.507095,48.983691,0]},"properties":{"name":"Equinix, Inc.","description":"","peeringDB":"https://peeringdb.com/fac/229","website":"https://www.equinix.com/locations/france-colocation/paris-data-centers/pa1/","Networks":"8","Exchanges":"0","Address":"Rue de la Belle Etoile, 167","city":"Roissy-en-France","country":"FR","state":"Paris","zipcode":"95948","latitude":"48.983691","longitude":"2.507095"}},
{"type":"Feature","id":"2392","geometry":{"type":"Point","coordinates":[3.090551,50.63768,0]},"properties":{"name":"Cogent Communications, Inc.","description":"","peeringDB":"https://peeringdb.com/fac/230","website":"http://www.cogentco.com/htdocs/pops.php","Networks":"7","Exchanges":"1","Address":"72 rue Jenner","city":"Lille","country":"FR","state":"","zipcode":"59000","latitude":"50.63768","longitude":"3.090551"}},
{"type":"Feature","id":"2407","geometry":{"type":"Point","coordinates":[2.209917,48.785043,0]},"properties":{"name":"MULTICOMS FACILITIES MANAGEMENT","description":"","peeringDB":"https://peeringdb.com/fac/231","website":"http://www.multicoms.net/content/view/12/58/","Networks":"1","Exchanges":"0","Address":"6 Allée Latécoère","city":"Paris","country":"FR","state":"","zipcode":"78147","latitude":"48.785043","longitude":"2.209917"}},
{"type":"Feature","id":"2422","geometry":{"type":"Point","coordinates":[-0.557421,44.889099,0]},"properties":{"name":"SFR SA","description":"Previously LDCOM","peeringDB":"https://peeringdb.com/fac/232","website":"https://www.sfrbusiness.fr/solutions-entreprises/infrastructure-it/netcenter/","Networks":"24","Exchanges":"1","Address":"3 Rue du Dr Gabriel Péri","city":"Bordeaux","country":"FR","state":"","zipcode":"33000","latitude":"44.889099","longitude":"-0.557421"}},
{"type":"Feature","id":"2437","geometry":{"type":"Point","coordinates":[7.781145,48.569149,0]},"properties":{"name":"SFR SA","description":"","peeringDB":"https://peeringdb.com/fac/233","website":"https://www.sfrbusiness.fr/solutions-entreprises/infrastructure-it/netcenter/","Networks":"36","Exchanges":"1","Address":"1 rue du Havre","city":"Strasbourg","country":"FR","state":"","zipcode":"67000","latitude":"48.569149","longitude":"7.781145"}},
{"type":"Feature","id":"2452","geometry":{"type":"Point","coordinates":[-83.921438,35.965586,0]},"properties":{"name":"Peace Communications (Formerly Nexus Group)","description":"Formerly known as Digital Crossing.    Peace Communications KNX1 Facility has On Site access to multiple Tier1 and Tier2 Carriers.","peeringDB":"https://peeringdb.com/fac/234","website":"http://www.peacecom.net","Networks":"5","Exchanges":"0","Address":"500 W. Summit Hill","city":"Knoxville","country":"US","state":"TN","zipcode":"37902","latitude":"35.965586","longitude":"-83.921438"}},
{"type":"Feature","id":"2467","geometry":{"type":"Point","coordinates":[5.169722,52.241526,0]},"properties":{"name":"Ericsson Broadcast Services Netherlands","description":"","peeringDB":"https://peeringdb.com/fac/235","website":"","Networks":"26","Exchanges":"1","Address":"Koos Postemalaan 2","city":"Hilversum","country":"NL","state":"NH","zipcode":"1217 ZC","latitude":"52.241526","longitude":"5.169722"}},
{"type":"Feature","id":"2482","geometry":{"type":"Point","coordinates":[4.842597,52.399861,0]},"properties":{"name":"Digital Realty","description":"","peeringDB":"https://peeringdb.com/fac/236","website":"https://www.digitalrealty.com","Networks":"9","Exchanges":"0","Address":"Gyroscoopweg 60-62","city":"Amsterdam","country":"NL","state":"","zipcode":"1042 AC","latitude":"52.399861","longitude":"4.842597"}},
{"type":"Feature","id":"2497","geometry":{"type":"Point","coordinates":[4.788162,52.29257,0]},"properties":{"name":"NorthC Datacenters","description":"This facility is in the area of Amsterdam, Netherlands.","peeringDB":"https://peeringdb.com/fac/238","website":"https://www.northcdatacenters.com/","Networks":"26","Exchanges":"2","Address":"Fokkerweg 300","city":"Oude Meer","country":"NL","state":"Noord-Holland","zipcode":"1438 AN","latitude":"52.29257","longitude":"4.788162"}},
{"type":"Feature","id":"2512","geometry":{"type":"Point","coordinates":[4.774186,52.259795,0]},"properties":{"name":"NorthC Datacenters","description":"This facility is in the area of Amsterdam, Netherlands.","peeringDB":"https://peeringdb.com/fac/239","website":"https://www.northcdatacenters.com/","Networks":"5","Exchanges":"1","Address":"Lakenblekerstraat 13","city":"Aalsmeer","country":"NL","state":"Noord-Holland","zipcode":"1431 GE","latitude":"52.259795","longitude":"4.774186"}},
{"type":"Feature","id":"2527","geometry":{"type":"Point","coordinates":[10.95877,50.254995,0]},"properties":{"name":"UNITED COLO GmbH / NGZ-Server.de","description":"","peeringDB":"https://peeringdb.com/fac/241","website":"http://www.unitedcolo.de","Networks":"0","Exchanges":"0","Address":"Sonntagsanger 1","city":"Coburg","country":"DE","state":"","zipcode":"96450","latitude":"50.254995","longitude":"10.95877"}},
{"type":"Feature","id":"2542","geometry":{"type":"Point","coordinates":[-1.603213,54.972886,0]},"properties":{"name":"Pulsant","description":"","peeringDB":"https://peeringdb.com/fac/243","website":"http://www.pulsant.com/","Networks":"6","Exchanges":"0","Address":"5 Bridge View","city":"Newcastle upon Tyne","country":"GB","state":"","zipcode":"NE1 6PN","latitude":"54.972886","longitude":"-1.603213"}},
{"type":"Feature","id":"2557","geometry":{"type":"Point","coordinates":[6.300252,51.954184,0]},"properties":{"name":"InterRacks","description":"Formerly known as ISP Services Datacenter Doetinchem","peeringDB":"https://peeringdb.com/fac/245","website":"https://www.interdc.nl/en/locations/doetinchem/","Networks":"15","Exchanges":"1","Address":"1 Gildenbroederslaan","city":"Doetinchem","country":"NL","state":"Gelderland","zipcode":"7005","latitude":"51.954184","longitude":"6.300252"}},
{"type":"Feature","id":"2572","geometry":{"type":"Point","coordinates":[-74.00536,40.726019,0]},"properties":{"name":"Looking Glass Networks","description":"","peeringDB":"https://peeringdb.com/fac/246","website":"http://www.lglass.net","Networks":"0","Exchanges":"0","Address":"150 Varick Street","city":"New York","country":"US","state":"NY","zipcode":"10012","latitude":"40.726019","longitude":"-74.00536"}},
{"type":"Feature","id":"2587","geometry":{"type":"Point","coordinates":[-0.0725,51.513915,0]},"properties":{"name":"Lumen Technologies Inc","description":"","peeringDB":"https://peeringdb.com/fac/248","website":"http://www.level3.com","Networks":"6","Exchanges":"0","Address":"6 Braham St","city":"London","country":"GB","state":"","zipcode":"E1 8EE","latitude":"51.513915","longitude":"-0.0725"}},
{"type":"Feature","id":"2602","geometry":{"type":"Point","coordinates":[-84.383731,33.765138,0]},"properties":{"name":"Lumen Technologies Inc","description":"","peeringDB":"https://peeringdb.com/fac/249","website":"http://www.level3.com","Networks":"2","Exchanges":"0","Address":"345 Courtland St Ne","city":"Atlanta","country":"US","state":"GA","zipcode":"30308-3420","latitude":"33.765138","longitude":"-84.383731"}},
{"type":"Feature","id":"2617","geometry":{"type":"Point","coordinates":[-87.639611,41.880436,0]},"properties":{"name":"Lumen Technologies Inc","description":"","peeringDB":"https://peeringdb.com/fac/250","website":"http://www.level3.com","Networks":"3","Exchanges":"0","Address":"111 Canal, Suite 200","city":"Chicago","country":"US","state":"IL","zipcode":"60606","latitude":"41.880436","longitude":"-87.639611"}},
{"type":"Feature","id":"2632","geometry":{"type":"Point","coordinates":[3.887893,43.60956,0]},"properties":{"name":"Cogent Communications, Inc.","description":"","peeringDB":"https://peeringdb.com/fac/252","website":"https://www.cogentco.com/en/network/service-locations","Networks":"15","Exchanges":"2","Address":"189 place du 56e Régiment d'Artillerie","city":"Montpellier","country":"FR","state":"","zipcode":"34070","latitude":"43.60956","longitude":"3.887893"}},
{"type":"Feature","id":"2647","geometry":{"type":"Point","coordinates":[-0.082993,51.522955,0]},"properties":{"name":"Redcentric PLC","description":"","peeringDB":"https://peeringdb.com/fac/254","website":"https://www.redcentricplc.com/uk-data-centres/london-data-centre/","Networks":"40","Exchanges":"0","Address":"80 Clifton Street","city":"London","country":"GB","state":"","zipcode":"EC2A 4HB","latitude":"51.522955","longitude":"-0.082993"}},
{"type":"Feature","id":"2662","geometry":{"type":"Point","coordinates":[-106.650102,35.084663,0]},"properties":{"name":"IXNM, INC.","description":"","peeringDB":"https://peeringdb.com/fac/256","website":"http://www.ixnm.net","Networks":"0","Exchanges":"0","Address":"219 Central Ave NW","city":"Albuquerque","country":"US","state":"NM","zipcode":"87102","latitude":"35.084663","longitude":"-106.650102"}},
{"type":"Feature","id":"2677","geometry":{"type":"Point","coordinates":[17.943347,59.405682,0]},"properties":{"name":"AB Stokab","description":"","peeringDB":"https://peeringdb.com/fac/258","website":"http://www.stokab.se/","Networks":"6","Exchanges":"0","Address":"Borgafjordsgatan 15","city":"Stockholm","country":"SE","state":"","zipcode":"16440","latitude":"59.405682","longitude":"17.943347"}},
{"type":"Feature","id":"2692","geometry":{"type":"Point","coordinates":[17.953487,59.406342,0]},"properties":{"name":"Verizon Communications, Inc.","description":"","peeringDB":"https://peeringdb.com/fac/259","website":"http://www.verizonbusiness.com/se/","Networks":"0","Exchanges":"0","Address":"Torshamnsgatan 27","city":"Stockholm","country":"SE","state":"","zipcode":"16440","latitude":"59.406342","longitude":"17.953487"}},
{"type":"Feature","id":"2707","geometry":{"type":"Point","coordinates":[16.356475,48.213465,0]},"properties":{"name":"KAPPER NETWORK-COMMUNICATIONS GmbH","description":"","peeringDB":"https://peeringdb.com/fac/260","website":"https://kapper.net","Networks":"6","Exchanges":"0","Address":"Liebiggasse 9","city":"Vienna","country":"AT","state":"","zipcode":"1010","latitude":"48.213465","longitude":"16.356475"}},
{"type":"Feature","id":"2722","geometry":{"type":"Point","coordinates":[6.86597,51.18875,0]},"properties":{"name":"Lumen Technologies Inc","description":"","peeringDB":"https://peeringdb.com/fac/261","website":"http://www.lumen.com","Networks":"0","Exchanges":"0","Address":"In der Steele 35","city":"Duesseldorf","country":"DE","state":"","zipcode":"40599","latitude":"51.18875","longitude":"6.86597"}},
{"type":"Feature","id":"2737","geometry":{"type":"Point","coordinates":[4.94859,52.29643,0]},"properties":{"name":"Lumen Technologies Inc","description":"","peeringDB":"https://peeringdb.com/fac/262","website":"http://www.level3.com","Networks":"2","Exchanges":"0","Address":"STEKKENBERGWEG 4","city":"Amsterdam","country":"NL","state":"","zipcode":"1105AJ","latitude":"52.29643","longitude":"4.94859"}},
{"type":"Feature","id":"2752","geometry":{"type":"Point","coordinates":[7.259722,43.70338,0]},"properties":{"name":"Cogent Communications, Inc.","description":"","peeringDB":"https://peeringdb.com/fac/264","website":"http://www.cogentco.com","Networks":"6","Exchanges":"0","Address":"16 Avenue Thiers","city":"Nice","country":"FR","state":"","zipcode":"06000","latitude":"43.70338","longitude":"7.259722"}},
{"type":"Feature","id":"2767","geometry":{"type":"Point","coordinates":[7.073109,43.609448,0]},"properties":{"name":"Cogent Communications, Inc.","description":"","peeringDB":"https://peeringdb.com/fac/265","website":"http://www.cogentco.com","Networks":"6","Exchanges":"0","Address":"282 route des Cistes","city":"Antibes","country":"FR","state":"","zipcode":"06600","latitude":"43.609448","longitude":"7.073109"}},
{"type":"Feature","id":"2782","geometry":{"type":"Point","coordinates":[1.423103,43.620447,0]},"properties":{"name":"Cogent Communications, Inc.","description":"","peeringDB":"https://peeringdb.com/fac/266","website":"http://www.cogentco.com","Networks":"17","Exchanges":"1","Address":"125bis ch du Sang de Serp","city":"Toulouse","country":"FR","state":"","zipcode":"31200","latitude":"43.620447","longitude":"1.423103"}},
{"type":"Feature","id":"2797","geometry":{"type":"Point","coordinates":[-82.994861,39.968171,0]},"properties":{"name":"Citynet","description":"","peeringDB":"https://peeringdb.com/fac/267","website":"http://www.citynet.net","Networks":"3","Exchanges":"1","Address":"251 Neilston St.","city":"Columbus","country":"US","state":"OH","zipcode":"43219","latitude":"39.968171","longitude":"-82.994861"}},
{"type":"Feature","id":"2812","geometry":{"type":"Point","coordinates":[-80.003614,40.447383,0]},"properties":{"name":"Citynet","description":"","peeringDB":"https://peeringdb.com/fac/268","website":"http://www.citynet.net","Networks":"4","Exchanges":"0","Address":"Allegheny Center Mall","city":"Pittsburgh","country":"US","state":"PA","zipcode":"15212","latitude":"40.447383","longitude":"-80.003614"}},
{"type":"Feature","id":"2827","geometry":{"type":"Point","coordinates":[26.115913,44.419772,0]},"properties":{"name":"IPSERV","description":"","peeringDB":"https://peeringdb.com/fac/269","website":"http://www.ipserv.ro","Networks":"0","Exchanges":"0","Address":"23-25 Nerva Traian","city":"Bucharest","country":"RO","state":"","zipcode":"","latitude":"44.419772","longitude":"26.115913"}},
{"type":"Feature","id":"2842","geometry":{"type":"Point","coordinates":[-3.295901,55.930562,0]},"properties":{"name":"Pulsant","description":"","peeringDB":"https://peeringdb.com/fac/271","website":"https://www.pulsant.com/","Networks":"37","Exchanges":"1","Address":"The Clocktower Estate, Flassches Yard","city":"Edinburgh","country":"GB","state":"","zipcode":"EH12 9LB","latitude":"55.930562","longitude":"-3.295901"}},
{"type":"Feature","id":"2857","geometry":{"type":"Point","coordinates":[-86.170711,39.759534,0]},"properties":{"name":"Citynet","description":"","peeringDB":"https://peeringdb.com/fac/273","website":"http://www.citynet.net","Networks":"1","Exchanges":"0","Address":"701 W. Henry St.","city":"Indianapolis","country":"US","state":"IN","zipcode":"46225","latitude":"39.759534","longitude":"-86.170711"}},
{"type":"Feature","id":"2872","geometry":{"type":"Point","coordinates":[6.81752,51.267301,0]},"properties":{"name":"WIIT Group (IT, DE, CH)","description":"","peeringDB":"https://peeringdb.com/fac/274","website":"http://www.wiit.cloud","Networks":"100","Exchanges":"8","Address":"Am Gatherhof 44","city":"Düsseldorf","country":"DE","state":"NRW","zipcode":"40472","latitude":"51.267301","longitude":"6.81752"}},
{"type":"Feature","id":"2887","geometry":{"type":"Point","coordinates":[-122.680792,45.521366,0]},"properties":{"name":"1547 Critical Systems Realty","description":"","peeringDB":"https://peeringdb.com/fac/275","website":"http://www.pittock.com","Networks":"71","Exchanges":"1","Address":"921 SW Washington St","city":"Portland","country":"US","state":"OR","zipcode":"97205","latitude":"45.521366","longitude":"-122.680792"}},
{"type":"Feature","id":"2902","geometry":{"type":"Point","coordinates":[8.601436,50.128192,0]},"properties":{"name":"NTT DATA's Global Data Centers division","description":"The Frankfurt 1 Data Center is the main site of NTT, which has a total of more than 60,000 sqm of data center and technical space. This makes our campus Europe’s largest individual data center site. Our campus offers space for seven free-standing buildings which have been constructed and equipped\nespecially for use as data centers. The latest building, component H, has been opened in November 2017. The Campus also houses an office building and an\nevent center.","peeringDB":"https://peeringdb.com/fac/277","website":"https://datacenter.hello.global.ntt/en/location/frankfurt/frankfurt-1-data-center","Networks":"120","Exchanges":"8","Address":"Eschborner Landstrasse 100","city":"Frankfurt","country":"DE","state":"Hessen","zipcode":"60489","latitude":"50.128192","longitude":"8.601436"}},
{"type":"Feature","id":"2917","geometry":{"type":"Point","coordinates":[4.503638,50.877572,0]},"properties":{"name":"Mobistar Enterprise Services NV","description":"","peeringDB":"https://peeringdb.com/fac/278","website":"http://corporate.mobistar.be","Networks":"5","Exchanges":"0","Address":"Leuvensesteenweg 641","city":"Nossegem","country":"BE","state":"","zipcode":"1930","latitude":"50.877572","longitude":"4.503638"}},
{"type":"Feature","id":"2932","geometry":{"type":"Point","coordinates":[-74.06912,40.78616,0]},"properties":{"name":"Evoque Data Center Solutions","description":"","peeringDB":"https://peeringdb.com/fac/279","website":"https://www.evoquedcs.com/","Networks":"12","Exchanges":"1","Address":"15 Enterprise Avenue N","city":"Secaucus","country":"US","state":"NJ","zipcode":"07094","latitude":"40.78616","longitude":"-74.06912"}},
{"type":"Feature","id":"2947","geometry":{"type":"Point","coordinates":[-6.415382,53.296287,0]},"properties":{"name":"eircom Ltd","description":"Customers only at this site","peeringDB":"https://peeringdb.com/fac/280","website":"http://www.eir.ie","Networks":"4","Exchanges":"0","Address":"Unit 4050, Kingswood Avenue","city":"Dublin","country":"IE","state":"","zipcode":"24","latitude":"53.296287","longitude":"-6.415382"}},
{"type":"Feature","id":"2962","geometry":{"type":"Point","coordinates":[-71.269187,42.395346,0]},"properties":{"name":"Equinix, Inc.","description":"","peeringDB":"https://peeringdb.com/fac/281","website":"http://www.equinix.com/","Networks":"3","Exchanges":"0","Address":"74 West Street","city":"Waltham","country":"US","state":"MA","zipcode":"02451","latitude":"42.395346","longitude":"-71.269187"}},
{"type":"Feature","id":"2977","geometry":{"type":"Point","coordinates":[103.789842,1.295229,0]},"properties":{"name":"Equinix, Inc.","description":"","peeringDB":"https://peeringdb.com/fac/282","website":"https://www.equinix.com/locations/singapore-colocation/singapore-data-center/sg1/","Networks":"476","Exchanges":"11","Address":"20 Ayer Rajah Crescent","city":"Singapore","country":"SG","state":"","zipcode":"139964","latitude":"1.295229","longitude":"103.789842"}},
{"type":"Feature","id":"2992","geometry":{"type":"Point","coordinates":[-87.631453,41.876212,0]},"properties":{"name":"365 Data Centers","description":"This is the former Switch & Data/Equinix facility.","peeringDB":"https://peeringdb.com/fac/283","website":"https://www.365datacenters.com/chicago-data-center/","Networks":"21","Exchanges":"2","Address":"427 S. La Salle","city":"Chicago","country":"US","state":"IL","zipcode":"60605","latitude":"41.876212","longitude":"-87.631453"}},
{"type":"Feature","id":"3007","geometry":{"type":"Point","coordinates":[4.450532,50.885261,0]},"properties":{"name":"Verizon Communications, Inc.","description":"","peeringDB":"https://peeringdb.com/fac/284","website":"http://www.verizonbusiness.com/be","Networks":"2","Exchanges":"0","Address":"Culliganlaan 2e","city":"Machelen","country":"BE","state":"Flanders","zipcode":"1831","latitude":"50.885261","longitude":"4.450532"}},
{"type":"Feature","id":"3022","geometry":{"type":"Point","coordinates":[4.450532,50.885261,0]},"properties":{"name":"Verizon Communications, Inc.","description":"","peeringDB":"https://peeringdb.com/fac/285","website":"http://www.verizonbusiness.com/be","Networks":"0","Exchanges":"0","Address":"Culliganlaan 2/H","city":"Brussels","country":"BE","state":"","zipcode":"1831","latitude":"50.885261","longitude":"4.450532"}},
{"type":"Feature","id":"3037","geometry":{"type":"Point","coordinates":[-77.029149,38.902918,0]},"properties":{"name":"CoreSite","description":"","peeringDB":"https://peeringdb.com/fac/286","website":"http://www.coresite.com","Networks":"14","Exchanges":"2","Address":"1275 K Street, NW","city":"Washington","country":"US","state":"DC","zipcode":"20005","latitude":"38.902918","longitude":"-77.029149"}},
{"type":"Feature","id":"3052","geometry":{"type":"Point","coordinates":[8.629585,50.1009,0]},"properties":{"name":"aixit GmbH","description":"","peeringDB":"https://peeringdb.com/fac/290","website":"http://www.aixit.com","Networks":"22","Exchanges":"1","Address":"Rebstöcker Straße 55","city":"Frankfurt","country":"DE","state":"Hessen","zipcode":"60326","latitude":"50.1009","longitude":"8.629585"}},
{"type":"Feature","id":"3067","geometry":{"type":"Point","coordinates":[8.63429,50.101713,0]},"properties":{"name":"NewColo","description":"","peeringDB":"https://peeringdb.com/fac/291","website":"http://www.newcolo.de","Networks":"23","Exchanges":"2","Address":"Mainzer Landstrasse 351-353","city":"Frankfurt","country":"DE","state":"","zipcode":"60326","latitude":"50.101713","longitude":"8.63429"}},
{"type":"Feature","id":"3082","geometry":{"type":"Point","coordinates":[-121.954136,37.378042,0]},"properties":{"name":"VPLS","description":"","peeringDB":"https://peeringdb.com/fac/293","website":"http://www.evocative.com/","Networks":"12","Exchanges":"0","Address":"3080 Raymond Street","city":"Santa Clara","country":"US","state":"CA","zipcode":"95054","latitude":"37.378042","longitude":"-121.954136"}},